DayOrder,DayOfWeekStr,starttime,endtime,permit,PermitLocation,locationdesc,optionaltext,locationid,scheduleid,start24,end24,CNN,Addr_Date_Create,Addr_Date_Modified,block,lot,ColdTruck,Applicant,X,Y,Latitude,Longitude,Location
5,Friday,10AM,10PM,15MFF-0127,200 SHOTWELL ST,,"Tacos, Burritos, Tortas, Quesadillas, Mexican Drinks, Aguas Frescas",652257,,10:00,22:00,11834000,03/04/2011 10:30:43 AM,07/21/2011 11:23:49 AM,3571,014,N,"Santana ESG, Inc.",6007736.69666,2106759.30311,37.7651967350509,-122.416451692902,
5,Friday,1PM,2PM,14MFF-0001,180 MONTGOMERY ST,1:00PM-1:30PM,"Cold Truck: sandwiches, drinks, snacks, candy, hot coffee",509482,,13:00,14:00,9298000,06/02/2011 09:50:49 AM,06/02/2011 09:51:03 AM,0289,009,Y,Sun Rise Catering,6012023.61118,2115992.47962,37.7907890558203,-122.402273431333,
5,Friday,10AM,11AM,15MFF-0020,101 EXECUTIVE PARK BLVD,10:00am-10:05am,"Cold Truck: Pre-packaged Sandwiches, Various Beverages, Salads, Snacks",626001,,10:00,11:00,5372202,08/29/2011 04:52:48 PM,08/29/2011 04:53:06 PM,4991,241,Y,Golden Catering,6013626.81853,2086973.71432,37.7111991003088,-122.394693339395,
5,Friday,10AM,3PM,15MFF-0047,290 TOWNSEND ST,10:00am-3:00pm,"Hot Dogs, Hamburgers, Nachos, Steaks, Pastas, Asian Dishes, Tri-Tip Sandwiches, Sodas & Water",629198,,10:00,15:00,12662000,07/28/2011 02:28:19 PM,07/28/2011 02:28:35 PM,3787,028,N,Linda's Catering,6014079.55674,2111038.10448,37.7773000262759,-122.394812784799,
5,Friday,10AM,11AM,15MFF-0116,299 ILLINOIS ST,"10:05am-10:10am, 12:10pm-12:15pm","Cold Truck: Sandwiches, fruit, snacks, candy, hot and cold drinks",639692,,10:00,11:00,7163000,07/01/2011 10:51:03 AM,07/01/2011 10:51:27 AM,3850,001A,Y,May Catering,,,,,
5,Friday,10AM,11AM,14MFF-0034,1828 EGBERT AVE,10:05am-10:15am,"Cold Truck: Cheeseburgers, Burgers, Chicken Bake, Chili Dogs, Hot Dogs, Corn Dogs, Cup of Noodles, Egg Muffins, Tamales, Hot Sandwiches Quesadillas, Gatorade, Juice, Soda, Mikl, Coffee, Hot Cocoa, Hot Tea, Flan, Fruits, Fruit Salad, Yogurt, Candy, Chips,  Donuts, Cookies, Granola, Muffins & Various Drinks & Pre-Packaged Snacks.",526128,,10:00,11:00,5118000,04/22/2011 10:32:31 AM,10/24/2011 11:21:54 AM,5434B,005,Y,Bach Catering,6012168.38934,2092772.15906,37.7270392647114,-122.400141029645,
5,Friday,10AM,11AM,14MFF-0001,560 NATOMA ST,10:10am-10:15am,"Cold Truck: sandwiches, drinks, snacks, candy, hot coffee",509496,,10:00,11:00,9513000,06/07/2011 08:56:36 AM,06/07/2011 08:56:51 AM,3726,071,Y,Sun Rise Catering,6009961.2623,2111790.02747,37.7791347875605,-122.409112429172,
5,Friday,10AM,11AM,15MFF-0020,301 EXECUTIVE PARK BLVD,10:10am-10:25am,"Cold Truck: Pre-packaged Sandwiches, Various Beverages, Salads, Snacks",626002,,10:00,11:00,5374000,08/29/2011 04:56:30 PM,08/29/2011 04:56:43 PM,4991,240,Y,Golden Catering,6014761.54077,2086930.26079,37.7111428086172,-122.390768390822,
5,Friday,10AM,11AM,15MFF-0116,500 16TH ST,10:10am-10:25am,"Cold Truck: Sandwiches, fruit, snacks, candy, hot and cold drinks",639693,,10:00,11:00,697000,07/01/2011 10:52:24 AM,07/01/2011 10:52:39 AM,3810,007,Y,May Catering,6015638.29704,2107239.05184,37.7669552085597,-122.389155218908,
5,Friday,10AM,11AM,15MFF-0061,1450 WALLACE AVE,10:15am-10:20am,"Cold Truck: Pre-packaged sandwiches, snacks, fruit, various beverages",631458,,10:00,11:00,13355000,05/13/2011 09:16:14 AM,05/13/2011 09:16:32 AM,4828,024,Y,Liang Bai Ping,6015589.70159,2092302.36867,37.7259394852676,-122.388280728611,
5,Friday,10AM,11AM,15MFF-0079,2525 MARIN ST,10:15am-10:20am,"Cold Truck: Hamburger, cheeseburgers, hot dogs, hot sandwiches, cold sandwiches, egg muffins, cup of noodles, corn dogs, canned soup, coffee, hot cocoa, hot tea, gatorade, juice, milk, soda, water, fruits, fruit salad, rice pudding, yogurt, candy bars, chips, cookies, donuts, granola bars, muffins",632706,,10:00,11:00,8700000,06/07/2011 04:30:45 PM,06/07/2011 04:31:06 PM,4343,001D,Y,Park's Catering,6011682.16711,2100464.95536,37.7481349335447,-122.402362570049,
5,Friday,1PM,2PM,15MFF-0119,3335 17TH ST,"10:20am-10:35am(Sat), 1:30pm-1:50pm(Sat), 1:20pm-1:35pm(M-F)","Burgers, melts, hot dogs, burritos,sandwiches, fries, onion rings, drinks",645792,,13:00,14:00,797000,06/07/2011 11:13:12 AM,06/07/2011 11:13:51 AM,3576,086,Y,Natan's Catering,6006629.27774,2106102.87237,37.7633319911646,-122.420235403432,
5,Friday,10AM,11AM,15MFF-0079,3450 03RD ST,10:25am-10:30am,"Cold Truck: Hamburger, cheeseburgers, hot dogs, hot sandwiches, cold sandwiches, egg muffins, cup of noodles, corn dogs, canned soup, coffee, hot cocoa, hot tea, gatorade, juice, milk, soda, water, fruits, fruit salad, rice pudding, yogurt, candy bars, chips, cookies, donuts, granola bars, muffins",632707,,10:00,11:00,198201,06/07/2011 04:31:45 PM,06/07/2011 04:32:12 PM,5211,029,Y,Park's Catering,6015841.40345,2099487.67011,37.7456828142552,-122.387911761433,
5,Friday,10AM,11AM,15MFF-0020,835 JAMESTOWN AVE,10:30am-10:40am,"Cold Truck: Pre-packaged Sandwiches, Various Beverages, Salads, Snacks",626003,,10:00,11:00,7428000,08/29/2011 04:57:08 PM,08/29/2011 04:57:22 PM,4991,277,Y,Golden Catering,6014862.63879,2088936.11373,37.7166561002993,-122.390559039934,
5,Friday,10AM,11AM,15MFF-0058,350 08TH ST,10:35am-10:40am,"Cold Truck: Corn Dogs, Noodle Soups, Candy, Pre-packaged Snacks, Sandwiches, Chips, Coffee, Tea, Various Beverages",630927,,10:00,11:00,414000,05/09/2011 01:07:14 PM,05/09/2011 01:07:28 PM,3756,003,Y,Mini Mobile Food Catering,6009929.21709,2109972.65871,37.7741429232436,-122.409095016264,
5,Friday,10AM,11AM,15MFF-0079,525 PHELPS ST,10:35am-10:40am,"Cold Truck: Hamburger, cheeseburgers, hot dogs, hot sandwiches, cold sandwiches, egg muffins, cup of noodles, corn dogs, canned soup, coffee, hot cocoa, hot tea, gatorade, juice, milk, soda, water, fruits, fruit salad, rice pudding, yogurt, candy bars, chips, cookies, donuts, granola bars, muffins",632708,,10:00,11:00,10397000,06/07/2011 04:32:42 PM,06/07/2011 04:33:04 PM,5242,015,Y,Park's Catering,6015469.99789,2098212.94053,37.7421620878271,-122.389107048701,
5,Friday,10AM,11AM,15MFF-0117,2150 CESAR CHAVEZ ST,10:40am-10:45am,"Cold Truck: Sandwiches, Noodles,  Pre-packaged Snacks, Candy, Desserts Various Beverages",641319,,10:00,11:00,2477000,10/24/2011 04:22:27 PM,10/24/2011 04:22:48 PM,4324,002,Y,Anas Goodies Catering,6012974.22837,2101008.95368,37.7497006783758,-122.397932791641,
5,Friday,10AM,11AM,13MFF-0102,2045 EVANS AVE,10:40am-11:00am,"Burgers, melts, hot dogs, burritos,sandwiches, fries, onion rings, drinks",437191,,10:00,11:00,5340000,06/07/2011 10:01:21 AM,06/07/2011 10:01:44 AM,4343,002,Y,Natan's Catering,6013398.6388,2100274.16728,37.7477067391559,-122.396413656839,
5,Friday,10AM,11AM,15MFF-0040,2145 MARKET ST,10:45am to 11am,"Cold Truck: Breakfast, Sandwiches, Salads, Pre-Packaged Snacks, Beverages",627754,,10:00,11:00,8764101,05/12/2011 08:15:29 AM,10/24/2011 04:39:00 PM,3543,003B,Y,BH & MT LLC,6003915.64989,2107389.84263,37.7667124225934,-122.429712749525,
5,Friday,10AM,11AM,15MFF-0040,1477 GROVE ST,10am to 10:20am,"Cold Truck: Breakfast, Sandwiches, Salads, Pre-Packaged Snacks, Beverages",627752,,10:00,11:00,6565000,05/12/2011 07:55:50 AM,05/12/2011 07:56:16 AM,1200,015,Y,BH & MT LLC,6000751.01311,2110656.00878,37.7755007902079,-122.44089299009,
5,Friday,10AM,11AM,15MFF-0051,2701 GREEN ST,10am-10:05am,"Cold Truck: Pre-packaged sandwiches, Chicken Bake, Canned Soup, Chili Dog, Corn Dog, Cup of Noodles, Egg Muffins, Hamburgers, Cheeseburgers, Hot Dog, Hot sandwiches, quesadillas, Beverages, Flan, Fruits, Yogurt, Candy, Cookies, Chips, Donuts, Snacks",629920,,10:00,11:00,6480000,04/21/2011 04:58:58 PM,04/21/2011 04:59:14 PM,0955,001,Y,D & T Catering,6000113.15199,2117788.12991,37.7950473983156,-122.443611961361,
5,Friday,10AM,11AM,15MFF-0051,3100 PACIFIC AVE,10am-10:10am,"Cold Truck: Pre-packaged sandwiches, Chicken Bake, Canned Soup, Chili Dog, Corn Dog, Cup of Noodles, Egg Muffins, Hamburgers, Cheeseburgers, Hot Dog, Hot sandwiches, quesadillas, Beverages, Flan, Fruits, Yogurt, Candy, Cookies, Chips, Donuts, Snacks",629926,,10:00,11:00,10163000,04/21/2011 05:04:34 PM,04/21/2011 05:04:49 PM,0965,006,Y,D & T Catering,5999298.01072,2116668.79574,37.7919274798426,-122.446351899572,
5,Friday,12PM,1PM,15MFF-0058,701 16TH ST,"10am-10:10am, 12:20pm-12:45pm","Cold Truck: Corn Dogs, Noodle Soups, Candy, Pre-packaged Snacks, Sandwiches, Chips, Coffee, Tea, Various Beverages",630924,,12:00,13:00,699001,05/09/2011 12:48:34 PM,05/09/2011 12:48:55 PM,8723,001,Y,Mini Mobile Food Catering,6014603.26051,2107142.35834,37.7666322775493,-122.392728509584,
5,Friday,11AM,12PM,15MFF-0061,1135 REVERE AVE,11:20am-11:40am,"Cold Truck: Pre-packaged sandwiches, snacks, fruit, various beverages",631464,,11:00,12:00,10972000,05/13/2011 10:03:08 AM,05/13/2011 10:03:26 AM,4786,051,Y,Liang Bai Ping,6017554.98723,2092534.39015,37.726685271787,-122.381502925492,
5,Friday,12PM,1PM,14MFF-0109,1118 MISSION ST,12:00pm-12:10pm,"COLD TRUCK. Deli: bbq chicken skewer, Chinese spring roll, Chinese fried rice/noodle, fried chicken leg/wing, bbq chicken sandwich, chicken cheese burger, burrito, lumpia. Snack: sunflower seeds, muffins, chips, snickers, kit-kat, 10 types of chocolate. Drinks: Coke, 7-Up, Dr. Pepper, Pepsi, Redbull, Vitamin Water, Rockstar, Coconut Juice, Water. Hot drinks: coffee, tea.",559782,,12:00,13:00,9101000,08/31/2011 03:46:28 PM,08/31/2011 03:46:41 PM,3702,032,Y,Mang Hang Catering,6009292.77547,2111720.81017,37.7789072614613,-122.411420115933,
5,Friday,12PM,1PM,15MFF-0083,1000 HOLLISTER AVE,12:00pm-12:15pm,"Ice Cream, Pre-Packaged Chips, Candies, Bottled Water & Canned SODA",632858,,12:00,13:00,6961000,08/31/2011 01:24:17 PM,08/31/2011 01:24:32 PM,4943,002,Y,Singh Brothers Ice Cream,6014872.20285,2089703.55732,37.7187638807592,-122.390579577708,
5,Friday,12AM,5AM,15MFF-0109,1200 MISSISSIPPI ST,"12:01am-5:00am & 3:30pm-5:15pm (M-F), 12:01am-5:00am & 2:30pm-5:30pm (Sat)","Cold Truck: sandwiches, corndogs, tacos, yogurt, snacks, candy, hot and cold drinks",635743,,00:00,05:00,9206000,09/21/2011 09:07:59 AM,09/21/2011 09:09:06 AM,4288,003,Y,M M Catering,6014089.98012,2101407.88576,37.7508581374316,-122.394102374471,
5,Friday,12PM,1PM,15MFF-0051,1150 FRANCISCO ST,12:10pm-12:50pm,"Cold Truck: Pre-packaged sandwiches, Chicken Bake, Canned Soup, Chili Dog, Corn Dog, Cup of Noodles, Egg Muffins, Hamburgers, Cheeseburgers, Hot Dog, Hot sandwiches, quesadillas, Beverages, Flan, Fruits, Yogurt, Candy, Cookies, Chips, Donuts, Snacks",629925,,12:00,13:00,5770000,04/21/2011 05:03:53 PM,04/21/2011 05:04:09 PM,0475,001,Y,D & T Catering,6005805.24689,2120698.42612,37.8033613224352,-122.424123509274,
5,Friday,12PM,1PM,13MFF-0102,1801 EVANS AVE,12:20pm-12:30pm,"Burgers, melts, hot dogs, burritos,sandwiches, fries, onion rings, drinks",437215,,12:00,13:00,5337000,06/07/2011 12:29:20 PM,06/07/2011 12:29:35 PM,5232,005,Y,Natan's Catering,6014579.44888,2099293.12719,37.745078648302,-122.392261844141,
5,Friday,12PM,1PM,15MFF-0116,535 MINNESOTA ST,12:33pm-12:35pm,"Cold Truck: Sandwiches, fruit, snacks, candy, hot and cold drinks",639721,,12:00,13:00,9053000,08/31/2011 10:59:19 AM,08/31/2011 10:59:44 AM,3996,016,Y,May Catering,6015166.56617,2106081.52868,37.7637507401569,-122.390705976388,
5,Friday,10AM,11AM,15MFF-0061,1335 YOSEMITE AVE,"1335 YOSEMITE AVE - 7:45am-7:50am, 10:40am-10:45am","Cold Truck: Pre-packaged sandwiches, snacks, fruit, various beverages",631443,,10:00,11:00,13779000,05/12/2011 04:23:05 PM,05/12/2011 04:23:25 PM,4846,013,Y,Liang Bai Ping,6015993.74262,2091565.17941,37.7239376882365,-122.386832585234,
5,Friday,9AM,11AM,15MFF-0119,1650 03RD ST,1450 3rd St: 9:40am-9:50am.  1650 3rd St: 10:30am-10:40am,"Burgers, melts, hot dogs, burritos,sandwiches, fries, onion rings, drinks",645814,,09:00,11:00,185205,06/08/2011 02:14:00 PM,06/08/2011 02:14:28 PM,8711,007,Y,Natan's Catering,6015577.58983,2107743.972,37.76833824373,-122.389400461508,
5,Friday,8AM,9AM,15MFF-0058,Assessors Block 4341/Lot001,1605 Kansas St: 6:30am-7:25am,"Cold Truck: Corn Dogs, Noodle Soups, Candy, Pre-packaged Snacks, Sandwiches, Chips, Coffee, Tea, Various Beverages",630916,,08:00,09:00,7740000,05/09/2011 12:18:00 PM,05/09/2011 12:18:45 PM,4341,001,Y,Mini Mobile Food Catering,6011939.508,2100756.7,37.7489503634271,-122.401493189708,
5,Friday,8AM,5PM,15MFF-0108,58 MAIN ST,252' South of Market St,"Vietnamese sandwiches, spring rolls, bottle water, can soda, chicken and shrimp rice noodles, rice with chicken, chicken salad, noodle soup.",635282,,08:00,17:00,8627000,03/07/2011 01:21:31 PM,03/07/2011 01:22:58 PM,3711,005,N,"The Sandwich Stand, LLC.",6013948.78725,2116515.57958,37.7923326412243,-122.395649033197,
5,Friday,3PM,4PM,15MFF-0116,2090 EVANS AVE,3:00pm-3:15pm,"Cold Truck: Sandwiches, fruit, snacks, candy, hot and cold drinks",639714,,15:00,16:00,5340000,08/31/2011 10:44:15 AM,08/31/2011 10:44:36 AM,4347A,003,Y,May Catering,6013370.58722,2100472.32908,37.7482492881932,-122.396524546777,
5,Friday,3PM,8PM,15MFF-0097,368 FELL ST,30LF east of NE corner of Octavia & Fell,"Artisan Pizzas (Margherita, Yukon Potato, Zoe's Pepperoni, Funghi, Brocolli Rabe, Bacon Kale,  Arugula) and Drinks.",633615,,15:00,20:00,5442000,06/23/2011 11:57:57 AM,02/13/2012 11:49:07 AM,0817,032,N,"Casey's Pizza, LLC",6005679.28642,2110688.85634,37.7758704298588,-122.423847229106,
5,Friday,11AM,12PM,15MFF-0058,355 FREMONT ST,"355 Harrison St: 9:50am-10am, 11:50am-12pm","Cold Truck: Corn Dogs, Noodle Soups, Candy, Pre-packaged Snacks, Sandwiches, Chips, Coffee, Tea, Various Beverages",630922,,11:00,12:00,6710000,05/09/2011 12:45:02 PM,05/09/2011 12:45:24 PM,3747,320,Y,Mini Mobile Food Catering,6014763.57081,2114688.28795,37.7873606094505,-122.392701953926,
5,Friday,8AM,3PM,15MFF-0013,670 05TH ST,4 Various trucks located on the 5th St frontage,Everything,624189,,08:00,15:00,307000,10/16/2013 03:10:32 PM,12/11/2013 02:36:29 PM,3785,002,N,"Off the Grid Services, LLC",6013234.01636,2110452.73514,37.7756456857724,-122.397696734316,
5,Friday,4PM,5PM,15MFF-0116,1600 DONNER AVE,4:00pm-4:05pm,"Cold Truck: Sandwiches, fruit, snacks, candy, hot and cold drinks",639716,,16:00,17:00,4909000,08/31/2011 10:46:03 AM,08/31/2011 10:47:26 AM,4881,023,Y,May Catering,6013929.40606,2091793.45283,37.7244499679315,-122.393984693201,
5,Friday,4PM,5PM,15MFF-0083,195 KISKA RD,4:15pm-4:30pm,"Ice Cream, Pre-Packaged Chips, Candies, Bottled Water & Canned SODA",632875,,16:00,17:00,4938000,09/14/2011 10:44:23 AM,09/14/2011 10:44:39 AM,4700,052,Y,Singh Brothers Ice Cream,6018894.20641,2093709.40093,37.7299854741476,-122.376954714967,
5,Friday,5PM,6PM,15MFF-0083,360 PENINSULA AVE,5:00pm-5:15pm,"Ice Cream, Pre-Packaged Chips, Candies, Bottled Water & Canned SODA",632878,,17:00,18:00,10327000,09/14/2011 10:50:40 AM,09/14/2011 10:51:02 AM,5083,009,Y,Singh Brothers Ice Cream,6012279.71916,2086946.72593,37.7110500071211,-122.39934738525,
5,Friday,10AM,2PM,14MFF-0125,2600 INGALLS ST,,"Corndogs, fried burrito, rice placet, soda, water, sandwiches, soup, noodle plates",570016,,10:00,14:00,7236000,08/19/2014 03:50:13 PM,11/13/2014 02:29:18 PM,4882,001,N,Eva's Catering,6015158.81535,2091191.2052,37.7228645657946,-122.389692712248,
5,Friday,12PM,3AM,15MFF-0007,2601 MISSION ST,,"Soda, chips, energy drinks, hot dogs, bacon-wrapped hot dogs, fruit, corn",623661,,12:00,03:00,9124000,02/23/2015 03:34:01 PM,02/23/2015 03:34:38 PM,3637,069,N,Julie's Hot Dogs,6007021.27588,2103203.5076,37.7553930872542,-122.418673985373,
5,Friday,11AM,2PM,15MFF-0057,225 BUSH ST,,"Chicken Tiki Masala Burritos, Paneer Tiki Masala Burritos, Samosas, Mango Lassi",630168,,11:00,14:00,3422000,03/07/2011 10:26:59 AM,03/07/2011 10:27:35 AM,0289,001,N,Curry Up Now,6012351.63941,2116088.27731,37.7910703986756,-122.401145196973,
5,Friday,9AM,10PM,15MFF-0128,2598 HARRISON ST,,"Tacos, Burritos, Tortas, Quesadillas, Mexican Drinks, Aguas Frescas",652258,,09:00,22:00,6754000,03/04/2011 09:39:24 AM,03/04/2011 09:49:14 AM,3613,009,N,"Santana ESG, Inc.",6008875.45992,2103341.54331,37.7558763209725,-122.412271386632,
5,Friday,1PM,2PM,14MFF-0001,180 NEW MONTGOMERY ST,1:00PM-2:00PM,"Cold Truck: sandwiches, drinks, snacks, candy, hot coffee",509483,,13:00,14:00,9546000,06/02/2011 09:51:40 AM,06/02/2011 09:51:57 AM,3722,022,Y,Sun Rise Catering,6012860.22927,2114363.55606,37.7863630776208,-122.399264358097,
5,Friday,1PM,3PM,15MFF-0061,1377 FELL ST,1:05pm-3:00pm,"Cold Truck: Pre-packaged sandwiches, snacks, fruit, various beverages",631469,,13:00,15:00,5452000,05/13/2011 10:11:03 AM,05/13/2011 10:11:20 AM,1214,017,Y,Liang Bai Ping,6000846.3498,2109973.46268,37.7736321199408,-122.44051423368,
5,Friday,1PM,2PM,15MFF-0116,2300 CESAR CHAVEZ ST,1:55pm-2:00pm,"Cold Truck: Sandwiches, fruit, snacks, candy, hot and cold drinks",639711,,13:00,14:00,2477000,08/24/2011 03:52:49 PM,08/24/2011 03:53:12 PM,4328A,007,Y,May Catering,6012540.96797,2100984.89095,37.7496104682221,-122.399429343357,
5,Friday,4PM,5PM,13MFF-0102,66 POTRERO AVE,"10:00am-10:10am(Sat), 4:40pm-4:55pm(M-F)","Burgers, melts, hot dogs, burritos,sandwiches, fries, onion rings, drinks",437202,,16:00,17:00,10658000,06/07/2011 11:05:50 AM,06/07/2011 11:06:23 AM,3906,004,Y,Natan's Catering,6010232.94024,2107971.35823,37.7686648241945,-122.407903224274,
5,Friday,4PM,5PM,15MFF-0119,66 POTRERO AVE,"10:00am-10:10am(Sat), 4:40pm-4:55pm(M-F)","Burgers, melts, hot dogs, burritos,sandwiches, fries, onion rings, drinks",645790,,16:00,17:00,10658000,06/07/2011 11:05:50 AM,06/07/2011 11:06:23 AM,3906,004,Y,Natan's Catering,6010232.94024,2107971.35823,37.7686648241945,-122.407903224274,
5,Friday,10AM,11AM,15MFF-0021,444 TOWNSEND ST,10:05am-10:10am,"Cold Truck: Hot/Cold Sandwiches, Water, Soda, Juice, Snacks, Milk, Candies, Canned Food, Soups, Cup of Noodles, Fruit, Salad",626062,,10:00,11:00,12664000,05/06/2011 11:37:18 AM,05/06/2011 11:37:32 AM,3785,004A,Y,F & C Catering,6013062.85153,2110066.6773,37.7745761256077,-122.398261747293,
5,Friday,10AM,12PM,15MFF-0077,222 02ND ST,"10:05am-10:10am, 11:30am-11:40am","Cold Truck: Soft drinks, cup cakes, potato chips, cookies, gum, sandwiches (hot & cold), peanuts, muffins, coff (hot & cold), water, juice, yoplait, milk, orange juice, sunflower seeds, can foods, burritos, buscuits, chimichangas, rice krispies",632684,,10:00,12:00,135000,04/10/2012 10:00:05 AM,04/10/2012 10:00:23 AM,3735,063,Y,Quan Catering,6013205.99435,2114380.7873,37.7864296546035,-122.398069300142,
5,Friday,10AM,11AM,15MFF-0058,401 HARRISON ST,10:10am-10:20am,"Cold Truck: Corn Dogs, Noodle Soups, Candy, Pre-packaged Snacks, Sandwiches, Chips, Coffee, Tea, Various Beverages",630925,,10:00,11:00,6711000,05/09/2011 12:49:29 PM,10/24/2011 04:36:12 PM,3765,001,Y,Mini Mobile Food Catering,6014952.69695,2114445.90991,37.786705596962,-122.392030655401,
5,Friday,10AM,11AM,14MFF-0034,1455 BANCROFT AVE,10:15am-10:20am,"Cold Truck: Cheeseburgers, Burgers, Chicken Bake, Chili Dogs, Hot Dogs, Corn Dogs, Cup of Noodles, Egg Muffins, Tamales, Hot Sandwiches Quesadillas, Gatorade, Juice, Soda, Mikl, Coffee, Hot Cocoa, Hot Tea, Flan, Fruits, Fruit Salad, Yogurt, Candy, Chips,  Donuts, Cookies, Granola, Muffins & Various Drinks & Pre-Packaged Snacks.",526129,,10:00,11:00,2709000,04/22/2011 10:35:02 AM,04/22/2011 10:35:15 AM,4879,022,Y,Bach Catering,6015044.19182,2091613.95342,37.7240189919943,-122.390118463974,
5,Friday,12PM,2PM,14MFF-0001,532 FOLSOM ST,"10:20-11:50am (M-Sa), 12:00pm-2:00pm (M-F)","Cold Truck: sandwiches, drinks, snacks, candy, hot coffee",509481,,12:00,14:00,5659000,06/02/2011 09:49:43 AM,06/02/2011 09:50:08 AM,3736,156,Y,Sun Rise Catering,6013882.72143,2114353.63016,37.7863927555352,-122.395726074077,
5,Friday,10AM,11AM,15MFF-0051,2201 VALLEJO ST,10:20am-10:30am,"Cold Truck: Pre-packaged sandwiches, Chicken Bake, Canned Soup, Chili Dog, Corn Dog, Cup of Noodles, Egg Muffins, Hamburgers, Cheeseburgers, Hot Dog, Hot sandwiches, quesadillas, Beverages, Flan, Fruits, Yogurt, Candy, Cookies, Chips, Donuts, Snacks",629923,,10:00,11:00,13115000,04/21/2011 05:02:05 PM,04/21/2011 05:02:19 PM,0564,001,Y,D & T Catering,6003034.62674,2117846.79071,37.7953746521913,-122.433507424647,
5,Friday,10AM,11AM,15MFF-0028,409 ILLINOIS ST,10:25am-10:35am,"Cold Truck: Hot & Cold Sandwiches, Bagels, Burritos, Soups, Hot Dogs, Tacos, Pork Buns, BBQ Meat, Fruit, Various Beverages, Pasties, Pre-Packaged Snacks, Candy, Salads, Muffins, Scones, Brownies, Croissants, Energy Bars, Noodle Bowls",626854,,10:00,11:00,7165000,08/31/2011 11:55:53 AM,08/31/2011 11:56:08 AM,3940,001,Y,Two G's Catering,6015948.27353,2107171.45436,37.7667867792956,-122.388078331989,
5,Friday,10AM,2PM,15MFF-0037,500 HOWARD ST,10:30am-1:30pm,"St. Louis Style Ribs, Pulled Pork Sandwich, Smoked Brisket, Smoked Chicken Drumsticks, Spinach Salad, Cole Slaw, Baked Beans, Mashed Potatoes, Grilled Asparagus, Mac & Cheese, Potato Salad, Buttermil Pie, Soda, Water",627205,,10:00,14:00,7033000,10/25/2011 08:18:21 AM,10/25/2011 08:19:13 AM,3721,011,N,"Covered Dish Productions, LLC. dba. The Rib Whip",6013778.7388,2115134.04818,37.7885298177102,-122.396140544185,
5,Friday,10AM,11AM,15MFF-0116,2000 FOLSOM ST,10:30am-10:35am,"Cold Truck: Sandwiches, fruit, snacks, candy, hot and cold drinks",639695,,10:00,11:00,5690000,07/01/2011 10:54:58 AM,07/01/2011 10:55:20 AM,3571,001,Y,May Catering,6008048.383,2106787.69855,37.7652922254458,-122.415375651896,
5,Friday,1PM,2PM,15MFF-0065,1310 MINNESOTA ST,"10:30am-10:45am, 1:00pm-1:30pm","Cold Truck: packaged sandwiches, snacks, candy, hot and cold drinks",631771,,13:00,14:00,9059000,06/16/2011 01:28:15 PM,06/16/2011 01:28:44 PM,4228,129,Y,Mike's Catering,6015323.07395,2102466.83234,37.7538342401608,-122.389912147781,
5,Friday,8AM,10AM,15MFF-0021,1500 TENNESSEE ST,10:40am-10:45am,"Cold Truck: Hot/Cold Sandwiches, Water, Soda, Juice, Snacks, Milk, Candies, Canned Food, Soups, Cup of Noodles, Fruit, Salad",626066,,08:00,10:00,12491000,05/06/2011 12:49:52 PM,05/06/2011 12:50:07 PM,4294,012,Y,F & C Catering,6015638.01363,2101922.12679,37.7523560542966,-122.388784980412,
5,Friday,10AM,11AM,15MFF-0021,1500 TENNESSEE ST,10:40am-10:45am,"Cold Truck: Hot/Cold Sandwiches, Water, Soda, Juice, Snacks, Milk, Candies, Canned Food, Soups, Cup of Noodles, Fruit, Salad",626066,,10:00,11:00,12491000,05/06/2011 12:49:52 PM,05/06/2011 12:50:07 PM,4294,012,Y,F & C Catering,6015638.01363,2101922.12679,37.7523560542966,-122.388784980412,
5,Friday,10AM,11AM,15MFF-0058,701 16TH ST,"10am-10:10am, 12:20pm-12:45pm","Cold Truck: Corn Dogs, Noodle Soups, Candy, Pre-packaged Snacks, Sandwiches, Chips, Coffee, Tea, Various Beverages",630924,,10:00,11:00,699001,05/09/2011 12:48:34 PM,05/09/2011 12:48:55 PM,8723,001,Y,Mini Mobile Food Catering,6014603.26051,2107142.35834,37.7666322775493,-122.392728509584,
5,Friday,11AM,12PM,15MFF-0061,1160 REVERE AVE,11:10am-11:20am,"Cold Truck: Pre-packaged sandwiches, snacks, fruit, various beverages",631463,,11:00,12:00,10972000,05/13/2011 10:02:25 AM,05/13/2011 10:02:40 AM,4763,050,Y,Liang Bai Ping,6017475.4751,2092643.55343,37.7269806226365,-122.381785388427,
5,Friday,11AM,12PM,15MFF-0020,601 CRESCENT AVE,11:25am-11:30am,"Cold Truck: Pre-packaged Sandwiches, Various Beverages, Salads, Snacks",626004,,11:00,12:00,4494000,08/29/2011 04:57:56 PM,08/29/2011 04:58:09 PM,5741,016,Y,Golden Catering,6007776.69785,2095716.79039,37.7348787351337,-122.415531470861,
5,Friday,11AM,12PM,15MFF-0117,3000 03RD ST,11:30am-11:35am,"Cold Truck: Sandwiches, Noodles,  Pre-packaged Snacks, Candy, Desserts Various Beverages",641323,,11:00,12:00,195201,10/24/2011 04:27:57 PM,10/24/2011 04:28:11 PM,4315,008,Y,Anas Goodies Catering,6015940.45733,2101621.91417,37.751548491531,-122.387718127295,
5,Friday,11AM,12PM,15MFF-0065,2200 CESAR CHAVEZ ST,11:30am-11:40am,"Cold Truck: packaged sandwiches, snacks, candy, hot and cold drinks",631772,,11:00,12:00,2477000,06/16/2011 01:34:13 PM,06/16/2011 01:34:31 PM,4327A,007,Y,Mike's Catering,6012829.80824,2101000.93277,37.7496706104363,-122.398431642605,
5,Friday,11AM,12PM,15MFF-0021,1550 EVANS AVE,11:35am-11:40am,"Cold Truck: Hot/Cold Sandwiches, Water, Soda, Juice, Snacks, Milk, Candies, Canned Food, Soups, Cup of Noodles, Fruit, Salad",626068,,11:00,12:00,5333201,05/06/2011 12:51:58 PM,05/06/2011 12:52:12 PM,5203,035,Y,F & C Catering,6015987.45377,2098343.43119,37.7425490595565,-122.387326932203,
5,Friday,11AM,12PM,15MFF-0117,3255 03RD ST,11:40am-11:50am,"Cold Truck: Sandwiches, Noodles,  Pre-packaged Snacks, Candy, Desserts Various Beverages",641325,,11:00,12:00,197101,10/24/2011 04:29:48 PM,10/24/2011 04:30:05 PM,4377,001,Y,Anas Goodies Catering,6016052.556,2100401.49551,37.748203685056,-122.387245352135,
5,Friday,11AM,12PM,15MFF-0116,2800 03RD ST,11:50am-11:55am,"Cold Truck: Sandwiches, fruit, snacks, candy, hot and cold drinks",639700,,11:00,12:00,193201,07/12/2011 11:01:45 AM,07/12/2011 11:02:07 AM,4246,001,Y,May Catering,6015888.45006,2102553.34969,37.7541031367651,-122.387962966002,
5,Friday,11AM,12PM,15MFF-0117,1090 26TH ST,11:50am-11:55am,"Cold Truck: Sandwiches, Noodles,  Pre-packaged Snacks, Candy, Desserts Various Beverages",641326,,11:00,12:00,1500000,10/24/2011 04:30:34 PM,10/24/2011 04:30:51 PM,4293,015,Y,Anas Goodies Catering,6015145.52428,2101602.52301,37.7514511815096,-122.390465773031,
5,Friday,11AM,12PM,15MFF-0116,2301 HARRISON ST,11:55am-12:00pm,"Cold Truck: Sandwiches, fruit, snacks, candy, hot and cold drinks",639701,,11:00,12:00,6751000,07/12/2011 11:21:05 AM,07/12/2011 11:21:31 AM,4083,008,Y,May Catering,6008821.28931,2104961.55257,37.7603214583917,-122.412573240495,
5,Friday,11AM,12PM,15MFF-0117,1575 INDIANA ST,11:55am-12:00pm,"Cold Truck: Sandwiches, Noodles,  Pre-packaged Snacks, Candy, Desserts Various Beverages",641327,,11:00,12:00,7200000,10/24/2011 04:31:15 PM,10/24/2011 04:31:31 PM,4317,017,Y,Anas Goodies Catering,6015157.76194,2101239.03674,37.750453803667,-122.390398059007,
5,Friday,12PM,1PM,15MFF-0116,2150 HARRISON ST,12:00pm-12:05pm,"Cold Truck: Sandwiches, fruit, snacks, candy, hot and cold drinks",639702,,12:00,13:00,6747000,08/24/2011 10:35:49 AM,08/24/2011 10:36:20 AM,3573,025,Y,May Catering,6008726.55271,2105884.44044,37.7628501796944,-122.412966144746,
5,Friday,12PM,1PM,15MFF-0061,2200 OFARRELL ST,12:15pm-1:00pm,"Cold Truck: Pre-packaged sandwiches, snacks, fruit, various beverages",631468,,12:00,13:00,9743000,05/13/2011 10:09:30 AM,05/13/2011 10:10:18 AM,1098,044,Y,Liang Bai Ping,6000775.65766697,2113124.57603483,37.7822802514051,-122.44098487304,
5,Friday,12PM,1PM,15MFF-0119,1801 EVANS AVE,12:20pm-12:30pm,"Burgers, melts, hot dogs, burritos,sandwiches, fries, onion rings, drinks",645803,,12:00,13:00,5337000,06/07/2011 12:29:20 PM,06/07/2011 12:29:35 PM,5232,005,Y,Natan's Catering,6014579.44888,2099293.12719,37.745078648302,-122.392261844141,
5,Friday,7AM,8AM,15MFF-0061,1335 YOSEMITE AVE,"1335 YOSEMITE AVE - 7:45am-7:50am, 10:40am-10:45am","Cold Truck: Pre-packaged sandwiches, snacks, fruit, various beverages",631443,,07:00,08:00,13779000,05/12/2011 04:23:05 PM,05/12/2011 04:23:25 PM,4846,013,Y,Liang Bai Ping,6015993.74262,2091565.17941,37.7239376882365,-122.386832585234,
5,Friday,11AM,3PM,15MFF-0132,180 NEW MONTGOMERY ST,15' From Curb Return at Howard,"Tacos, burritos, quesadillas",663821,,11:00,15:00,9546000,06/11/2015 02:55:35 PM,06/11/2015 02:55:58 PM,3722,022,N,Plaza Garibaldy,6012860.22927,2114363.55606,37.7863630776208,-122.399264358097,
5,Friday,12PM,1PM,15MFF-0079,1575 BURKE AVE,"1575 BURKE - 7:25am-7:30am, 12:25pm-12:30pm. 1585 BURKE 9:55am-10:00am","Cold Truck: Hamburger, cheeseburgers, hot dogs, hot sandwiches, cold sandwiches, egg muffins, cup of noodles, corn dogs, canned soup, coffee, hot cocoa, hot tea, gatorade, juice, milk, soda, water, fruits, fruit salad, rice pudding, yogurt, candy bars, chips, cookies, donuts, granola bars, muffins",632713,,12:00,13:00,3376000,06/17/2011 02:52:28 PM,06/17/2011 02:53:01 PM,5203,043,Y,Park's Catering,6016221.53623,2099116.91482,37.7446858481632,-122.386571458803,
5,Friday,11AM,2PM,15MFF-0029,120 02ND ST,16 LF west of NW corner of 2nd and Minna Streets,"Filipino fusion food: taco, burrito, nachos, rice plates",627141,,11:00,14:00,132000,03/08/2011 08:32:42 AM,03/08/2011 08:33:42 AM,3722,002,N,Senor Sisig,6012804.75426,2114846.92109,37.7876871932612,-122.399490236599,
5,Friday,6AM,8AM,15MFF-0058,Assessors Block 4341/Lot001,1605 Kansas St: 6:30am-7:25am,"Cold Truck: Corn Dogs, Noodle Soups, Candy, Pre-packaged Snacks, Sandwiches, Chips, Coffee, Tea, Various Beverages",630916,,06:00,08:00,7740000,05/09/2011 12:18:00 PM,05/09/2011 12:18:45 PM,4341,001,Y,Mini Mobile Food Catering,6011939.508,2100756.7,37.7489503634271,-122.401493189708,
5,Friday,5PM,9PM,15MFF-0015,225 POST ST,2 Trucks located in 3 parking spaces fronting 225 and 233 Post St.,Multiple Trucks,665242,,17:00,21:00,10627000,06/15/2015 10:18:19 AM,06/15/2015 10:18:59 AM,0309,027,N,The Whole Cart,6011042.30456,2115211.233,37.788589113579,-122.405613673233,
5,Friday,2PM,3PM,15MFF-0083,1550 WALLACE AVE,2:00pm-2:15pm,"Ice Cream, Pre-Packaged Chips, Candies, Bottled Water & Canned SODA",632866,,14:00,15:00,13356000,09/14/2011 10:19:54 AM,09/14/2011 10:20:07 AM,4829,006,Y,Singh Brothers Ice Cream,6015056.87973,2092699.57939,37.7270006086593,-122.390150411037,
5,Friday,9PM,12AM,14MFF-0097,1501 FOLSOM ST,,"Tacos, burritos, soda & juice",534668,,21:00,24:00,5683000,08/09/2011 09:26:30 AM,01/10/2012 11:20:44 AM,3521,058,N,GOZA GOZA TACO,6008497.59598,2109153.72579,37.771814022357,-122.413989317366,
5,Friday,11AM,9PM,14MFF-0133,97 01ST ST,,"smoked sausages, deer, wild boar, pheasant, buffalo, beef, turkey, coleslaw, vegetarian baked beans",598046,,11:00,21:00,103000,11/10/2014 02:59:55 PM,11/13/2014 07:48:16 AM,3709,008,N,Missing Link SF,6013377.47526,2115616.07782,37.7898310241126,-122.397562684622,
5,Friday,8AM,4PM,15MFF-0053,525 MARKET ST,,Hot Indian Chai,629929,,08:00,16:00,8742101,06/28/2011 12:28:39 PM,06/28/2011 12:29:43 PM,3708,056,N,The Chai Cart,6012784.15414,2115869.60519,37.7904940956493,-122.399633341677,
5,Friday,8AM,8PM,15MFF-0081,1275 EVANS AVE,,"Tacos, burritos, quesadillas, soda & water",632776,,08:00,20:00,5331101,10/21/2014 07:54:53 AM,10/30/2014 09:29:05 AM,5237,033,N,Tacos Rodriguez,6017370.90815,2097192.46952,37.7394652718683,-122.382463242698,
5,Friday,7AM,4PM,15MFF-0130,1800 EVANS AVE,,"Burritos, tacos, quesadillas, and tortas",654244,,07:00,16:00,5337000,05/12/2015 11:22:11 AM,05/12/2015 11:24:27 AM,5228,001,N,Tacos Esmeralda,6014603.39826,2099325.1651,37.7451679475044,-122.392181270945,
5,Friday,11PM,12AM,15MFF-0041,400 05TH ST,@ Harrison & 5th Street 40 LF away from the corner,"Italian subs, Cuban sandwich, Gyro",627777,,23:00,24:00,302000,03/07/2011 02:26:46 PM,12/23/2011 03:14:50 PM,3760,001,N,Subs on Hubs,6012050.93946,2111691.34343,37.7789806675378,-122.401876399982,
5,Friday,10AM,11AM,15MFF-0116,2130 HARRISON ST,10:00am-10:05am,"Cold Truck: Sandwiches, fruit, snacks, candy, hot and cold drinks",639689,,10:00,11:00,6746000,07/01/2011 10:39:31 AM,07/01/2011 10:39:46 AM,3573,046,Y,May Catering,6008721.97001,2105981.43883,37.7631162577319,-122.412988853417,
5,Friday,12PM,1PM,15MFF-0062,1345 TURK ST,10:00am-10:15am & 12:00pm-12:15pm,"Cold Truck: packaged sandwiches, pitas, breakfast, cold and hot drinks, snacks",631711,,12:00,13:00,12728000,08/09/2011 11:05:28 AM,08/09/2011 11:05:51 AM,0756,001,Y,Munch A Bunch,6003593.05269,2112440.56598,37.7805621947803,-122.431189105466,
5,Friday,10AM,9PM,13MFF-0112,2101 CARROLL AVE,10:00am-9:00pm,"Tacos, Burritos , Tortas, Quesadillas & Beverages",453012,,10:00,21:00,3742000,10/25/2011 08:51:46 AM,10/25/2011 08:52:10 AM,5436,012,N,Tacos Santana,6011435.03753,2093950.28359,37.7302332323588,-122.402759048478,
5,Friday,12PM,1PM,15MFF-0116,299 ILLINOIS ST,"10:05am-10:10am, 12:10pm-12:15pm","Cold Truck: Sandwiches, fruit, snacks, candy, hot and cold drinks",639692,,12:00,13:00,7163000,07/01/2011 10:51:03 AM,07/01/2011 10:51:27 AM,3850,001A,Y,May Catering,,,,,
5,Friday,10AM,11AM,15MFF-0061,1500 WALLACE AVE,10:10am-10:15am,"Cold Truck: Pre-packaged sandwiches, snacks, fruit, various beverages",631457,,10:00,11:00,13356000,05/13/2011 09:15:15 AM,05/13/2011 09:15:34 AM,4829,002,Y,Liang Bai Ping,6015312.43811,2092509.06445,37.7264916637361,-122.389253644975,
5,Friday,10AM,12PM,14MFF-0001,532 FOLSOM ST,"10:20-11:50am (M-Sa), 12:00pm-2:00pm (M-F)","Cold Truck: sandwiches, drinks, snacks, candy, hot coffee",509481,,10:00,12:00,5659000,06/02/2011 09:49:43 AM,06/02/2011 09:50:08 AM,3736,156,Y,Sun Rise Catering,6013882.72143,2114353.63016,37.7863927555352,-122.395726074077,
5,Friday,10AM,11AM,15MFF-0050,164 14TH ST,10:20am-10:25am,"Cold Truck: Soda,Chips,Candy, Cold/Hot Sandwiches, Donuts.  (Pitco Wholesale)",629898,,10:00,11:00,581000,04/13/2011 01:02:29 PM,10/24/2011 11:20:29 AM,3530,048,Y,John's Catering #5,6007598.90865,2107968.05434,37.7685079333296,-122.417013921855,
5,Friday,1PM,2PM,13MFF-0102,3335 17TH ST,"10:20am-10:35am(Sat), 1:30pm-1:50pm(Sat), 1:20pm-1:35pm(M-F)","Burgers, melts, hot dogs, burritos,sandwiches, fries, onion rings, drinks",437204,,13:00,14:00,797000,06/07/2011 11:13:12 AM,06/07/2011 11:13:51 AM,3576,086,Y,Natan's Catering,6006629.27774,2106102.87237,37.7633319911646,-122.420235403432,
5,Friday,10AM,11AM,15MFF-0062,1525 BRYANT ST,10:25am-10:30am,"Cold Truck: packaged sandwiches, pitas, breakfast, cold and hot drinks, snacks",631709,,10:00,11:00,24215000,08/09/2011 11:03:04 AM,08/09/2011 11:03:23 AM,3922A,001A,Y,Munch A Bunch,6009438.81158,2107690.94096,37.7678503715903,-122.41063025867,
5,Friday,10AM,11AM,15MFF-0051,3839 WASHINGTON ST,10:30am-10:40am,"Cold Truck: Pre-packaged sandwiches, Chicken Bake, Canned Soup, Chili Dog, Corn Dog, Cup of Noodles, Egg Muffins, Hamburgers, Cheeseburgers, Hot Dog, Hot sandwiches, quesadillas, Beverages, Flan, Fruits, Yogurt, Candy, Cookies, Chips, Donuts, Snacks",629924,,10:00,11:00,13451000,04/21/2011 05:02:55 PM,04/21/2011 05:03:09 PM,0992,034,Y,D & T Catering,5996419.93993,2115572.21498,37.7887517683903,-122.45623065616,
5,Friday,9AM,10AM,15MFF-0061,931 PALOU AVE,10:30am-10:40am & Set-up at 991 Palou: 9:00am-9:05am,"Cold Truck: Pre-packaged sandwiches, snacks, fruit, various beverages",631459,,09:00,10:00,10215000,05/13/2011 09:19:15 AM,05/13/2011 09:19:38 AM,4755,042,Y,Liang Bai Ping,6018287.16136,2092537.39201,37.7267339112889,-122.378972003992,
5,Friday,10AM,11AM,15MFF-0065,1310 MINNESOTA ST,"10:30am-10:45am, 1:00pm-1:30pm","Cold Truck: packaged sandwiches, snacks, candy, hot and cold drinks",631771,,10:00,11:00,9059000,06/16/2011 01:28:15 PM,06/16/2011 01:28:44 PM,4228,129,Y,Mike's Catering,6015323.07395,2102466.83234,37.7538342401608,-122.389912147781,
5,Friday,10AM,11AM,15MFF-0119,2045 EVANS AVE,10:40am-11:00am,"Burgers, melts, hot dogs, burritos,sandwiches, fries, onion rings, drinks",645779,,10:00,11:00,5340000,06/07/2011 10:01:21 AM,06/07/2011 10:01:44 AM,4343,002,Y,Natan's Catering,6013398.6388,2100274.16728,37.7477067391559,-122.396413656839,
5,Friday,10AM,11AM,14MFF-0109,1540 PINE ST,10:45am-10:55am,"COLD TRUCK. Deli: bbq chicken skewer, Chinese spring roll, Chinese fried rice/noodle, fried chicken leg/wing, bbq chicken sandwich, chicken cheese burger, burrito, lumpia. Snack: sunflower seeds, muffins, chips, snickers, kit-kat, 10 types of chocolate. Drinks: Coke, 7-Up, Dr. Pepper, Pepsi, Redbull, Vitamin Water, Rockstar, Coconut Juice, Water. Hot drinks: coffee, tea.",559771,,10:00,11:00,10477000,08/31/2011 03:04:39 PM,08/31/2011 03:10:52 PM,0646,005,Y,Mang Hang Catering,6006551.51583,2115667.02377,37.7895884629627,-122.421183529217,
5,Friday,10AM,11AM,15MFF-0020,2401 BAY SHORE BLVD,10:45am-11:00am,"Cold Truck: Pre-packaged Sandwiches, Various Beverages, Salads, Snacks",626000,,10:00,11:00,2825101,08/29/2011 04:44:44 PM,08/29/2011 04:44:56 PM,5087,003A,Y,Golden Catering,6011058.54374,2087018.26704,37.7111783070436,-122.403573115181,
5,Friday,11AM,12PM,13MFF-0102,3040 HARRISON ST,11:00am-11:15am,"Burgers, melts, hot dogs, burritos,sandwiches, fries, onion rings, drinks",437192,,11:00,12:00,6759001,06/07/2011 10:05:57 AM,06/07/2011 10:06:26 AM,6573,001,Y,Natan's Catering,6009011.7132,2100847.48279,37.7490358344714,-122.411623966472,
5,Friday,11AM,12PM,15MFF-0119,3040 HARRISON ST,11:00am-11:15am,"Burgers, melts, hot dogs, burritos,sandwiches, fries, onion rings, drinks",645780,,11:00,12:00,6759001,06/07/2011 10:05:57 AM,06/07/2011 10:06:26 AM,6573,001,Y,Natan's Catering,6009011.7132,2100847.48279,37.7490358344714,-122.411623966472,
5,Friday,11AM,12PM,15MFF-0117,131 SHOTWELL ST,11:05am-11:15am,"Cold Truck: Sandwiches, Noodles,  Pre-packaged Snacks, Candy, Desserts Various Beverages",641321,,11:00,12:00,11833000,10/24/2011 04:24:53 PM,10/24/2011 04:25:09 PM,5501,003,Y,Anas Goodies Catering,6007747.11363581,2107182.49340008,37.7663593026796,-122.41644564135,
5,Friday,11AM,12PM,15MFF-0079,1000 EVANS AVE,11:30am-11:40am,"Cold Truck: Hamburger, cheeseburgers, hot dogs, hot sandwiches, cold sandwiches, egg muffins, cup of noodles, corn dogs, canned soup, coffee, hot cocoa, hot tea, gatorade, juice, milk, soda, water, fruits, fruit salad, rice pudding, yogurt, candy bars, chips, cookies, donuts, granola bars, muffins",632710,,11:00,12:00,5329000,06/07/2011 04:38:19 PM,06/07/2011 04:38:37 PM,4580,002,Y,Park's Catering,6018870.42,2096118.83,37.7365999870093,-122.377204056226,
5,Friday,11AM,1PM,15MFF-0065,409 ILLINOIS ST,11:30am-12:30pm,"Cold Truck: packaged sandwiches, snacks, candy, hot and cold drinks",631774,,11:00,13:00,7165000,06/16/2011 01:35:53 PM,06/16/2011 01:36:17 PM,3940,001,Y,Mike's Catering,6015948.27353,2107171.45436,37.7667867792956,-122.388078331989,
5,Friday,11AM,5PM,13MFF-0112,1700 JERROLD AVE,11:30am-5:00pm,"Tacos, Burritos , Tortas, Quesadillas & Beverages",453013,,11:00,17:00,7498000,10/25/2011 08:53:10 AM,10/25/2011 08:53:27 AM,5262,009,N,Tacos Santana,6014824.34611,2097412.82042,37.7399293110874,-122.391283611001,
5,Friday,11AM,12PM,15MFF-0117,1040 MARIPOSA ST,11:35am-11:40am,"Cold Truck: Sandwiches, Noodles,  Pre-packaged Snacks, Candy, Desserts Various Beverages",641324,,11:00,12:00,8717000,10/24/2011 04:29:02 PM,10/24/2011 04:29:18 PM,3987,012,Y,Anas Goodies Catering,6014176.39047,2106211.41534,37.7640523949866,-122.394139809417,
5,Friday,11AM,2PM,15MFF-0050,2200 HAYES ST,11:50am-1:30pm,"Cold Truck: Soda,Chips,Candy, Cold/Hot Sandwiches, Donuts.  (Pitco Wholesale)",629903,,11:00,14:00,6834000,04/13/2011 03:07:21 PM,04/13/2011 03:07:42 PM,1191,039,Y,John's Catering #5,5997325.91385,2109872.57823,37.7731540275458,-122.452684612088,
5,Friday,12PM,10PM,15MFF-0047,260 TOWNSEND ST,12:00pm-10:00pm,"Hot Dogs, Hamburgers, Nachos, Steaks, Pastas, Asian Dishes, Tri-Tip Sandwiches, Sodas & Water",629201,,12:00,22:00,12662000,07/28/2011 03:47:19 PM,07/28/2011 03:48:03 PM,3787,024,N,Linda's Catering,6014282.70792,2111232.20872,37.777844286068,-122.394123606062,
5,Friday,12PM,1PM,15MFF-0117,951 INDIANA ST,12:00pm-12:06pm,"Cold Truck: Sandwiches, Noodles,  Pre-packaged Snacks, Candy, Desserts Various Beverages",641328,,12:00,13:00,7195000,10/24/2011 04:32:03 PM,10/24/2011 04:32:20 PM,4106,024,Y,Anas Goodies Catering,6014993.98346,2104151.16802,37.7584408101697,-122.391167953092,
5,Friday,3PM,6PM,15MFF-0109,1200 MISSISSIPPI ST,"12:01am-5:00am & 3:30pm-5:15pm (M-F), 12:01am-5:00am & 2:30pm-5:30pm (Sat)","Cold Truck: sandwiches, corndogs, tacos, yogurt, snacks, candy, hot and cold drinks",635743,,15:00,18:00,9206000,09/21/2011 09:07:59 AM,09/21/2011 09:09:06 AM,4288,003,Y,M M Catering,6014089.98012,2101407.88576,37.7508581374316,-122.394102374471,
5,Friday,12PM,1PM,13MFF-0102,435 23RD ST,12:30pm-12:40pm,"Burgers, melts, hot dogs, burritos,sandwiches, fries, onion rings, drinks",437195,,12:00,13:00,1232000,06/07/2011 10:19:26 AM,06/07/2011 10:23:23 AM,4232,010,Y,Natan's Catering,6016691.32292,2103048.06871,37.7555059783625,-122.385220879126,
5,Friday,12PM,1PM,15MFF-0119,435 23RD ST,12:30pm-12:40pm,"Burgers, melts, hot dogs, burritos,sandwiches, fries, onion rings, drinks",645783,,12:00,13:00,1232000,06/07/2011 10:19:26 AM,06/07/2011 10:23:23 AM,4232,010,Y,Natan's Catering,6016691.32292,2103048.06871,37.7555059783625,-122.385220879126,
5,Friday,12PM,1PM,15MFF-0083,2900 GRIFFITH ST,12:30pm-12:45pm,"Ice Cream, Pre-Packaged Chips, Candies, Bottled Water & Canned SODA",632860,,12:00,13:00,6548000,09/14/2011 09:20:54 AM,09/14/2011 09:30:52 AM,4973,001,Y,Singh Brothers Ice Cream,6015212.95063,2089043.01717,37.7169690643397,-122.389355637131,
5,Friday,12PM,1PM,15MFF-0117,1082 PENNSYLVANIA AVE,12:40pm-12:45pm,"Cold Truck: Sandwiches, Noodles,  Pre-packaged Snacks, Candy, Desserts Various Beverages",641332,,12:00,13:00,10337002,10/24/2011 04:34:56 PM,10/24/2011 04:35:15 PM,4224,095,Y,Anas Goodies Catering,6014501.62402,2102078.27917,37.7527217661049,-122.392725753817,
5,Friday,12PM,1PM,13MFF-0102,400 ALEMANY BLVD,12:45pm-1:00pm,"Burgers, melts, hot dogs, burritos,sandwiches, fries, onion rings, drinks",437216,,12:00,13:00,2157202,06/07/2011 12:30:12 PM,06/07/2011 12:30:29 PM,5843,024,Y,Natan's Catering,6008207.73945,2095116.8784,37.7332557262018,-122.413998779197,
5,Friday,12PM,1PM,15MFF-0083,800 JAMESTOWN AVE,12:45pm-1:00pm,"Ice Cream, Pre-Packaged Chips, Candies, Bottled Water & Canned SODA",632861,,12:00,13:00,7428000,09/14/2011 09:31:35 AM,09/14/2011 09:31:52 AM,4973,034,Y,Singh Brothers Ice Cream,6015030.29474,2088771.04143,37.7162121435373,-122.389968007493,
5,Friday,12PM,1PM,15MFF-0050,2157 BRYANT ST,12pm-12:05pm,"Cold Truck: Soda,Chips,Candy, Cold/Hot Sandwiches, Donuts.  (Pitco Wholesale)",629904,,12:00,13:00,3309000,04/13/2011 03:08:16 PM,04/13/2011 03:08:35 PM,4080,065,Y,John's Catering #5,6009599.51774,2104736.2771,37.7597465483315,-122.409865798217,
5,Friday,9AM,11AM,13MFF-0102,1650 03RD ST,1450 3rd St: 9:40am-9:50am.  1650 3rd St: 10:30am-10:40am,"Burgers, melts, hot dogs, burritos,sandwiches, fries, onion rings, drinks",437226,,09:00,11:00,185205,06/08/2011 02:14:00 PM,06/08/2011 02:14:28 PM,8711,007,Y,Natan's Catering,6015577.58983,2107743.972,37.76833824373,-122.389400461508,
5,Friday,7AM,8AM,15MFF-0079,1575 BURKE AVE,"1575 BURKE - 7:25am-7:30am, 12:25pm-12:30pm. 1585 BURKE 9:55am-10:00am","Cold Truck: Hamburger, cheeseburgers, hot dogs, hot sandwiches, cold sandwiches, egg muffins, cup of noodles, corn dogs, canned soup, coffee, hot cocoa, hot tea, gatorade, juice, milk, soda, water, fruits, fruit salad, rice pudding, yogurt, candy bars, chips, cookies, donuts, granola bars, muffins",632713,,07:00,08:00,3376000,06/17/2011 02:52:28 PM,06/17/2011 02:53:01 PM,5203,043,Y,Park's Catering,6016221.53623,2099116.91482,37.7446858481632,-122.386571458803,
5,Friday,2PM,3PM,15MFF-0083,1101 PALOU AVE,2:30pm-2:45pm,"Ice Cream, Pre-Packaged Chips, Candies, Bottled Water & Canned SODA",632868,,14:00,15:00,10218000,09/14/2011 10:22:47 AM,09/14/2011 10:23:00 AM,4757,024,Y,Singh Brothers Ice Cream,6017523.88143,2093256.05205,37.72866509729,-122.381660626351,
5,Friday,2PM,3PM,15MFF-0050,1830 HARRISON ST,2:30pm-2:45pm,"Cold Truck: Soda,Chips,Candy, Cold/Hot Sandwiches, Donuts.  (Pitco Wholesale)",629906,,14:00,15:00,6742000,04/13/2011 03:10:55 PM,04/13/2011 03:11:13 PM,3550,020,Y,John's Catering #5,6008637.23285,2107758.3607,37.7679905171377,-122.413407603967,
5,Friday,2PM,3PM,15MFF-0116,100 POTRERO AVE,2:50pm-2:55pm,"Cold Truck: Sandwiches, fruit, snacks, candy, hot and cold drinks",639713,,14:00,15:00,10659000,08/24/2011 03:54:38 PM,08/24/2011 03:55:11 PM,3920,001,Y,May Catering,6010237.42983,2107842.46532,37.7683111651865,-122.40787860481,
5,Friday,9AM,10AM,15MFF-0058,355 FREMONT ST,"355 Harrison St: 9:50am-10am, 11:50am-12pm","Cold Truck: Corn Dogs, Noodle Soups, Candy, Pre-packaged Snacks, Sandwiches, Chips, Coffee, Tea, Various Beverages",630922,,09:00,10:00,6710000,05/09/2011 12:45:02 PM,05/09/2011 12:45:24 PM,3747,320,Y,Mini Mobile Food Catering,6014763.57081,2114688.28795,37.7873606094505,-122.392701953926,
5,Friday,10AM,3PM,15MFF-0014,90 BROADWAY,5 LF south from the SE corner of Front and Vallejo Streets,everything except for hot dogs,624191,,10:00,15:00,3143000,03/23/2011 11:17:50 AM,03/23/2011 11:19:07 AM,0140,007,N,"Off the Grid Services, LLC",6012836.56068,2118897.74457,37.7988115687589,-122.399664721789,
5,Friday,5AM,6AM,15MFF-0050,401 HARRISON ST,5:30am-5:45am,"Cold Truck: Soda,Chips,Candy, Cold/Hot Sandwiches, Donuts.  (Pitco Wholesale)",629889,,05:00,06:00,6711000,04/13/2011 11:55:49 AM,04/13/2011 11:57:51 AM,3765,022,Y,John's Catering #5,6014952.69695,2114445.90991,37.786705596962,-122.392030655401,
5,Friday,6AM,7AM,15MFF-0064,860 02ND ST,"6:00am-6:05am, 11:00am-11:05am","Cold Truck: Pre-packaged sandwiches, Burgers, Hot Dogs, Muffin Sandwiches, Enchiladas, Bagels, Burritos, Salads, Snacks, Beverages",631751,,06:00,07:00,149000,09/07/2011 03:25:20 PM,09/07/2011 03:25:41 PM,3794,003,Y,Steve's Mobile Deli,6015720.22366201,2111802.08380127,37.779488829411,-122.389190496856,
5,Friday,6AM,7AM,15MFF-0028,201 BERRY ST,6:15am-6:45am,"Cold Truck: Hot & Cold Sandwiches, Bagels, Burritos, Soups, Hot Dogs, Tacos, Pork Buns, BBQ Meat, Fruit, Various Beverages, Pasties, Pre-Packaged Snacks, Candy, Salads, Muffins, Scones, Brownies, Croissants, Energy Bars, Noodle Bowls",626839,,06:00,07:00,2954000,08/31/2011 11:40:23 AM,08/31/2011 11:40:34 AM,8708,003,Y,Two G's Catering,6014483.78712,2110445.63021,37.7756956924416,-122.393372938554,
5,Friday,6AM,7AM,15MFF-0050,560 MISSION ST,6:20am-6:40am,"Cold Truck: Soda,Chips,Candy, Cold/Hot Sandwiches, Donuts.  (Pitco Wholesale)",629890,,06:00,07:00,9090000,04/13/2011 12:08:06 PM,04/13/2011 12:08:27 PM,3708,095,Y,John's Catering #5,6012999.86955,2115261.92579,37.788837572632,-122.398844308239,
5,Friday,6PM,7PM,15MFF-0116,350 MISSION ST,6:45pm-7:00pm,"Cold Truck: Sandwiches, fruit, snacks, candy, hot and cold drinks",639718,,18:00,19:00,9086000,08/31/2011 10:49:51 AM,08/31/2011 10:50:11 AM,3710,017,Y,May Catering,6013747.17221,2115975.76893,37.7908392304258,-122.396308779248,
5,Friday,6PM,8PM,15MFF-0109,20 HAIGHT ST,6:50pm-7:15pm,"Cold Truck: sandwiches, corndogs, tacos, yogurt, snacks, candy, hot and cold drinks",635751,,18:00,20:00,6603000,09/26/2011 09:46:36 AM,09/26/2011 09:46:55 AM,0853,023,Y,M M Catering,6006110.39185,2109707.48043,37.7732001359429,-122.422286181031,
5,Friday,6AM,7AM,14MFF-0109,500 MASONIC AVE,"6:55am-7:00am, 11:55am-12:00pm","COLD TRUCK. Deli: bbq chicken skewer, Chinese spring roll, Chinese fried rice/noodle, fried chicken leg/wing, bbq chicken sandwich, chicken cheese burger, burrito, lumpia. Snack: sunflower seeds, muffins, chips, snickers, kit-kat, 10 types of chocolate. Drinks: Coke, 7-Up, Dr. Pepper, Pepsi, Redbull, Vitamin Water, Rockstar, Coconut Juice, Water. Hot drinks: coffee, tea.",559775,,06:00,07:00,8848000,08/31/2011 03:18:20 PM,08/31/2011 03:18:45 PM,1175,018,Y,Mang Hang Catering,5999115.25439,2111134.78147,37.7767220798015,-122.446585903135,
5,Friday,11AM,12PM,14MFF-0109,500 MASONIC AVE,"6:55am-7:00am, 11:55am-12:00pm","COLD TRUCK. Deli: bbq chicken skewer, Chinese spring roll, Chinese fried rice/noodle, fried chicken leg/wing, bbq chicken sandwich, chicken cheese burger, burrito, lumpia. Snack: sunflower seeds, muffins, chips, snickers, kit-kat, 10 types of chocolate. Drinks: Coke, 7-Up, Dr. Pepper, Pepsi, Redbull, Vitamin Water, Rockstar, Coconut Juice, Water. Hot drinks: coffee, tea.",559775,,11:00,12:00,8848000,08/31/2011 03:18:20 PM,08/31/2011 03:18:45 PM,1175,018,Y,Mang Hang Catering,5999115.25439,2111134.78147,37.7767220798015,-122.446585903135,
5,Friday,7AM,8AM,15MFF-0064,750 02ND ST,"7:00am-7:05am, 10:30am-10:40am, 12:06pm-12:15pm","Cold Truck: Pre-packaged sandwiches, Burgers, Hot Dogs, Muffin Sandwiches, Enchiladas, Bagels, Burritos, Salads, Snacks, Beverages",631753,,07:00,08:00,148000,09/07/2011 03:33:16 PM,09/07/2011 03:34:22 PM,3794,002A,Y,Steve's Mobile Deli,6015462.86233,2112061.94317,37.780188074444,-122.390098985325,
5,Friday,10AM,11AM,15MFF-0064,750 02ND ST,"7:00am-7:05am, 10:30am-10:40am, 12:06pm-12:15pm","Cold Truck: Pre-packaged sandwiches, Burgers, Hot Dogs, Muffin Sandwiches, Enchiladas, Bagels, Burritos, Salads, Snacks, Beverages",631753,,10:00,11:00,148000,09/07/2011 03:33:16 PM,09/07/2011 03:34:22 PM,3794,002A,Y,Steve's Mobile Deli,6015462.86233,2112061.94317,37.780188074444,-122.390098985325,
5,Friday,7AM,8AM,14MFF-0109,1 THOMAS MORE WAY,"7:00am-7:10am, 10:00am-10:10am, 12:00pm-12:10pm","COLD TRUCK. Deli: bbq chicken skewer, Chinese spring roll, Chinese fried rice/noodle, fried chicken leg/wing, bbq chicken sandwich, chicken cheese burger, burrito, lumpia. Snack: sunflower seeds, muffins, chips, snickers, kit-kat, 10 types of chocolate. Drinks: Coke, 7-Up, Dr. Pepper, Pepsi, Redbull, Vitamin Water, Rockstar, Coconut Juice, Water. Hot drinks: coffee, tea.",559780,,07:00,08:00,12583000,08/31/2011 03:39:41 PM,08/31/2011 03:40:19 PM,7380,027,Y,Mang Hang Catering,5991083.26248,2088048.7782,37.7128718139384,-122.472687037509,
5,Friday,10AM,11AM,14MFF-0109,690 MISSION ST,"7:10am-7:15am, 10:05am-10:15am, 12:00pm-12:05pm","COLD TRUCK. Deli: bbq chicken skewer, Chinese spring roll, Chinese fried rice/noodle, fried chicken leg/wing, bbq chicken sandwich, chicken cheese burger, burrito, lumpia. Snack: sunflower seeds, muffins, chips, snickers, kit-kat, 10 types of chocolate. Drinks: Coke, 7-Up, Dr. Pepper, Pepsi, Redbull, Vitamin Water, Rockstar, Coconut Juice, Water. Hot drinks: coffee, tea.",559776,,10:00,11:00,9094000,08/31/2011 03:20:16 PM,08/31/2011 03:20:56 PM,3707,024,Y,Mang Hang Catering,6012107.51053,2114409.4119,37.786447007962,-122.40187181337,
5,Friday,7AM,8AM,15MFF-0079,1570 BURKE AVE,"7:15am-7:20am, 10:00am-10:05am, 12:15pm-12:20pm (all M-F)","Cold Truck: Hamburger, cheeseburgers, hot dogs, hot sandwiches, cold sandwiches, egg muffins, cup of noodles, corn dogs, canned soup, coffee, hot cocoa, hot tea, gatorade, juice, milk, soda, water, fruits, fruit salad, rice pudding, yogurt, candy bars, chips, cookies, donuts, granola bars, muffins",632694,,07:00,08:00,3376000,06/07/2011 04:06:49 PM,06/07/2011 04:07:23 PM,5203,066,Y,Park's Catering,6016270.58146,2099130.191,37.7447250168321,-122.386402793857,
5,Friday,10AM,11AM,15MFF-0079,1570 BURKE AVE,"7:15am-7:20am, 10:00am-10:05am, 12:15pm-12:20pm (all M-F)","Cold Truck: Hamburger, cheeseburgers, hot dogs, hot sandwiches, cold sandwiches, egg muffins, cup of noodles, corn dogs, canned soup, coffee, hot cocoa, hot tea, gatorade, juice, milk, soda, water, fruits, fruit salad, rice pudding, yogurt, candy bars, chips, cookies, donuts, granola bars, muffins",632694,,10:00,11:00,3376000,06/07/2011 04:06:49 PM,06/07/2011 04:07:23 PM,5203,066,Y,Park's Catering,6016270.58146,2099130.191,37.7447250168321,-122.386402793857,
5,Friday,7AM,8AM,15MFF-0116,2525 MARIN ST,7:30am-7:55am,"Cold Truck: Sandwiches, fruit, snacks, candy, hot and cold drinks",639674,,07:00,08:00,8700000,07/01/2011 09:24:11 AM,07/01/2011 09:24:24 AM,4343,001D,Y,May Catering,6011682.16711,2100464.95536,37.7481349335447,-122.402362570049,
5,Friday,7AM,9AM,15MFF-0065,1575 INDIANA ST,7:30am-8:30am,"Cold Truck: packaged sandwiches, snacks, candy, hot and cold drinks",631768,,07:00,09:00,7200000,06/16/2011 11:44:28 AM,06/16/2011 11:44:43 AM,4317,017,Y,Mike's Catering,6015157.76194,2101239.03674,37.750453803667,-122.390398059007,
5,Friday,7AM,8AM,15MFF-0079,1801 EVANS AVE,7:40am-7:55am,"Cold Truck: Hamburger, cheeseburgers, hot dogs, hot sandwiches, cold sandwiches, egg muffins, cup of noodles, corn dogs, canned soup, coffee, hot cocoa, hot tea, gatorade, juice, milk, soda, water, fruits, fruit salad, rice pudding, yogurt, candy bars, chips, cookies, donuts, granola bars, muffins",632695,,07:00,08:00,5337000,06/07/2011 04:09:27 PM,06/07/2011 04:09:47 PM,5232,005,Y,Park's Catering,6014579.44888,2099293.12719,37.745078648302,-122.392261844141,
5,Friday,12PM,1PM,15MFF-0061,1370 VAN DYKE AVE,"8:00am-8:10am, 12:20pm-12:25pm","Cold Truck: Pre-packaged sandwiches, snacks, fruit, various beverages",631445,,12:00,13:00,13139000,05/12/2011 04:25:19 PM,05/12/2011 04:25:42 PM,4811,013,Y,Liang Bai Ping,6015655.72197,2092604.54414,37.7267728572176,-122.388073576343,
5,Friday,8PM,9PM,15MFF-0109,661 HOWARD ST,8:00pm-8:30pm,"Cold Truck: sandwiches, corndogs, tacos, yogurt, snacks, candy, hot and cold drinks",635753,,20:00,21:00,7037000,09/26/2011 09:52:25 AM,09/26/2011 09:52:54 AM,3735,040,Y,M M Catering,6012767.08489,2114110.87486,37.7856640823991,-122.399568868889,
5,Friday,8AM,9AM,14MFF-0109,3300 CESAR CHAVEZ ST,"8:05am-8:20am, 11:30am-11:40am","COLD TRUCK. Deli: bbq chicken skewer, Chinese spring roll, Chinese fried rice/noodle, fried chicken leg/wing, bbq chicken sandwich, chicken cheese burger, burrito, lumpia. Snack: sunflower seeds, muffins, chips, snickers, kit-kat, 10 types of chocolate. Drinks: Coke, 7-Up, Dr. Pepper, Pepsi, Redbull, Vitamin Water, Rockstar, Coconut Juice, Water. Hot drinks: coffee, tea.",559781,,08:00,09:00,2488201,08/31/2011 03:44:44 PM,08/31/2011 03:45:04 PM,6571,011,Y,Mang Hang Catering,6007767.64566,2100598.46728,37.7482822297931,-122.415908342523,
5,Friday,8AM,9AM,15MFF-0116,2270 JERROLD AVE,8:09am-8:15am,"Cold Truck: Sandwiches, fruit, snacks, candy, hot and cold drinks",639675,,08:00,09:00,7502000,07/01/2011 09:25:41 AM,07/01/2011 09:26:31 AM,5230,008,Y,May Catering,6011984.58783,2099529.02995,37.7455819612317,-122.401251043957,
5,Friday,8AM,9AM,15MFF-0117,998 INDIANA ST,8:15am-8:20am,"Cold Truck: Sandwiches, Noodles,  Pre-packaged Snacks, Candy, Desserts Various Beverages",641302,,08:00,09:00,7195000,10/24/2011 03:55:05 PM,10/24/2011 03:55:20 PM,4105,011,Y,Anas Goodies Catering,6014965.7196,2103933.52082,37.7578416291379,-122.391250489057,
5,Friday,8AM,9AM,15MFF-0117,1400 MINNESOTA ST,"8:20am-8:30am, 11:15am-11:20am","Cold Truck: Sandwiches, Noodles,  Pre-packaged Snacks, Candy, Desserts Various Beverages",641303,,08:00,09:00,9061000,10/24/2011 03:56:07 PM,10/24/2011 03:59:20 PM,4293,018,Y,Anas Goodies Catering,6015358.18008,2101883.80675,37.7522353219293,-122.38975002217,
5,Friday,11AM,12PM,15MFF-0117,1400 MINNESOTA ST,"8:20am-8:30am, 11:15am-11:20am","Cold Truck: Sandwiches, Noodles,  Pre-packaged Snacks, Candy, Desserts Various Beverages",641303,,11:00,12:00,9061000,10/24/2011 03:56:07 PM,10/24/2011 03:59:20 PM,4293,018,Y,Anas Goodies Catering,6015358.18008,2101883.80675,37.7522353219293,-122.38975002217,
5,Friday,8AM,9AM,15MFF-0079,2020 EVANS AVE,8:25am-8:30am,"Cold Truck: Hamburger, cheeseburgers, hot dogs, hot sandwiches, cold sandwiches, egg muffins, cup of noodles, corn dogs, canned soup, coffee, hot cocoa, hot tea, gatorade, juice, milk, soda, water, fruits, fruit salad, rice pudding, yogurt, candy bars, chips, cookies, donuts, granola bars, muffins",632698,,08:00,09:00,5340000,06/07/2011 04:15:15 PM,06/07/2011 04:15:31 PM,4347A,000,Y,Park's Catering,6013465.91180051,2100189.50722397,37.7474780240452,-122.396175096381,
5,Friday,8AM,9AM,15MFF-0116,900 MINNESOTA ST,"8:35am-8:45am, 2:40pm-2:45pm","Cold Truck: Sandwiches, fruit, snacks, candy, hot and cold drinks",639677,,08:00,09:00,9056000,07/01/2011 09:28:14 AM,07/01/2011 09:28:43 AM,4106,001A,Y,May Catering,6015220.85423,2104389.81393,37.7591086681241,-122.390400000543,
5,Friday,2PM,3PM,15MFF-0116,900 MINNESOTA ST,"8:35am-8:45am, 2:40pm-2:45pm","Cold Truck: Sandwiches, fruit, snacks, candy, hot and cold drinks",639677,,14:00,15:00,9056000,07/01/2011 09:28:14 AM,07/01/2011 09:28:43 AM,4106,001A,Y,May Catering,6015220.85423,2104389.81393,37.7591086681241,-122.390400000543,
5,Friday,8AM,9AM,15MFF-0119,888 MARIN ST,8:40am-8:50am,"Burgers, melts, hot dogs, burritos,sandwiches, fries, onion rings, drinks",645807,,08:00,09:00,8694000,06/07/2011 12:43:59 PM,06/07/2011 12:44:19 PM,4358,007,Y,Natan's Catering,6016598.90751,2100747.17547,37.7491830922641,-122.385380152928,
5,Friday,12PM,1PM,15MFF-0079,220 RANKIN ST,"8:45am-8:50am, 12:40pm-12:50pm (all M-F)","Cold Truck: Hamburger, cheeseburgers, hot dogs, hot sandwiches, cold sandwiches, egg muffins, cup of noodles, corn dogs, canned soup, coffee, hot cocoa, hot tea, gatorade, juice, milk, soda, water, fruits, fruit salad, rice pudding, yogurt, candy bars, chips, cookies, donuts, granola bars, muffins",632700,,12:00,13:00,10927000,06/07/2011 04:17:28 PM,06/07/2011 04:18:33 PM,5215,016,Y,Park's Catering,6014717.20306,2099489.3611,37.7456251136816,-122.391799229195,
5,Friday,8AM,9AM,15MFF-0061,1515 GRIFFITH ST,8:45am-9:00am,"Cold Truck: Pre-packaged sandwiches, snacks, fruit, various beverages",631449,,08:00,09:00,6542000,05/12/2011 04:29:45 PM,05/12/2011 04:30:49 PM,4794,009,Y,Liang Bai Ping,6017573.00822,2092139.28436,37.7256013829105,-122.38141316378,
5,Friday,8AM,9AM,15MFF-0051,2854 GREEN ST,8:50am-8:55am,"Cold Truck: Pre-packaged sandwiches, Chicken Bake, Canned Soup, Chili Dog, Corn Dog, Cup of Noodles, Egg Muffins, Hamburgers, Cheeseburgers, Hot Dog, Hot sandwiches, quesadillas, Beverages, Flan, Fruits, Yogurt, Candy, Cookies, Chips, Donuts, Snacks",629913,,08:00,09:00,6481000,04/21/2011 04:43:49 PM,04/21/2011 04:44:04 PM,0949,009A,Y,D & T Catering,5999404.79969,2117729.95348,37.7948472365487,-122.446058770817,
5,Friday,8AM,9AM,15MFF-0058,1690 FOLSOM ST,8:50am-9am,"Cold Truck: Corn Dogs, Noodle Soups, Candy, Pre-packaged Snacks, Sandwiches, Chips, Coffee, Tea, Various Beverages",630918,,08:00,09:00,5685000,05/09/2011 12:28:33 PM,05/09/2011 12:28:48 PM,3515,040,Y,Mini Mobile Food Catering,6008018.56895,2108411.31305,37.7697486159216,-122.415593736173,
5,Friday,9AM,10AM,15MFF-0117,3150 03RD ST,"9:00am-9:05am, 11:25am-11:30am","Cold Truck: Sandwiches, Noodles,  Pre-packaged Snacks, Candy, Desserts Various Beverages",641308,,09:00,10:00,196000,10/24/2011 04:05:10 PM,10/24/2011 04:05:34 PM,4355,006,Y,Anas Goodies Catering,6015963.74579,2100918.19989,37.7496175291101,-122.387588501326,
5,Friday,8AM,9AM,15MFF-0119,1580 BURKE AVE,"9:00am-9:10am(Sat), 8:30am-8:40am(M-F)","Burgers, melts, hot dogs, burritos,sandwiches, fries, onion rings, drinks",645786,,08:00,09:00,3376000,06/07/2011 10:43:28 AM,06/07/2011 10:44:11 AM,5203,066,Y,Natan's Catering,6016207.84543,2099177.09262,37.7448503261018,-122.386622994805,
5,Friday,9AM,10AM,14MFF-0001,350 TREAT AVE,9:20am-9:25am,"Cold Truck: sandwiches, drinks, snacks, candy, hot coffee",509489,,09:00,10:00,12682000,06/07/2011 08:48:09 AM,06/07/2011 08:48:29 AM,3572,002,Y,Sun Rise Catering,6008601.30596,2106537.75638,37.7646370033035,-122.413445537287,
5,Friday,9AM,10AM,14MFF-0034,75 INDUSTRIAL ST,9:20am-9:30am,"Cold Truck: Cheeseburgers, Burgers, Chicken Bake, Chili Dogs, Hot Dogs, Corn Dogs, Cup of Noodles, Egg Muffins, Tamales, Hot Sandwiches Quesadillas, Gatorade, Juice, Soda, Mikl, Coffee, Hot Cocoa, Hot Tea, Flan, Fruits, Fruit Salad, Yogurt, Candy, Chips,  Donuts, Cookies, Granola, Muffins & Various Drinks & Pre-Packaged Snacks.",526124,,09:00,10:00,7205101,04/22/2011 10:22:11 AM,04/22/2011 10:22:57 AM,5332,023,Y,Bach Catering,6011899.67722,2097281.00066,37.7394046148963,-122.401386698396,
5,Friday,9AM,10AM,15MFF-0055,575 HARRISON ST,9:20am-9:30am,"Cold Truck: Sandwiches, snacks, prepackaged items, beverages,",629959,,09:00,10:00,6713000,04/20/2011 02:01:33 PM,04/20/2011 02:01:54 PM,3764,198,Y,Paradise Catering,6014200.97402,2113727.48935,37.7846912153683,-122.39458113071,
5,Friday,5AM,6AM,15MFF-0079,1200 MISSISSIPPI ST,5:30am-6:00am,"Cold Truck: Hamburger, cheeseburgers, hot dogs, hot sandwiches, cold sandwiches, egg muffins, cup of noodles, corn dogs, canned soup, coffee, hot cocoa, hot tea, gatorade, juice, milk, soda, water, fruits, fruit salad, rice pudding, yogurt, candy bars, chips, cookies, donuts, granola bars, muffins",632691,,05:00,06:00,9206000,05/25/2011 04:45:10 PM,05/25/2011 04:46:30 PM,4288,003,Y,Park's Catering,6014089.98012,2101407.88576,37.7508581374316,-122.394102374471,
5,Friday,11AM,12PM,15MFF-0064,860 02ND ST,"6:00am-6:05am, 11:00am-11:05am","Cold Truck: Pre-packaged sandwiches, Burgers, Hot Dogs, Muffin Sandwiches, Enchiladas, Bagels, Burritos, Salads, Snacks, Beverages",631751,,11:00,12:00,149000,09/07/2011 03:25:20 PM,09/07/2011 03:25:41 PM,3794,003,Y,Steve's Mobile Deli,6015720.22366201,2111802.08380127,37.779488829411,-122.389190496856,
5,Friday,6AM,7AM,14MFF-0001,199 FREMONT ST,6:00am-6:15am,"Cold Truck: sandwiches, drinks, snacks, candy, hot coffee",509484,,06:00,07:00,5862000,06/02/2011 09:55:05 AM,06/02/2011 09:55:24 AM,3719,008,Y,Sun Rise Catering,6014079.76345,2115403.4268,37.7892862133639,-122.395117913536,
5,Friday,6PM,7PM,15MFF-0109,2700 03RD ST,6:00pm-6:10pm,"Cold Truck: sandwiches, corndogs, tacos, yogurt, snacks, candy, hot and cold drinks",635749,,18:00,19:00,192201,09/26/2011 09:44:28 AM,09/26/2011 09:44:54 AM,4230,001,Y,M M Catering,6015862.43196,2103019.11908,37.7553805997368,-122.388085445297,
5,Friday,6AM,9AM,15MFF-0021,2890 03RD ST,"6:30AM-8:15AM, 12:20PM-1PM","Cold Truck: Hot/Cold Sandwiches, Water, Soda, Juice, Snacks, Milk, Candies, Canned Food, Soups, Cup of Noodles, Fruit, Salad",626058,,06:00,09:00,193201,05/06/2011 11:16:40 AM,05/06/2011 11:17:34 AM,4246,003,Y,F & C Catering,6015896.40169,2102133.99672,37.7529521222808,-122.387906207247,
5,Friday,6PM,7PM,15MFF-0116,185 BERRY ST,6:30pm-6:45pm,"Cold Truck: Sandwiches, fruit, snacks, candy, hot and cold drinks",639717,,18:00,19:00,2953000,08/31/2011 10:48:37 AM,08/31/2011 10:48:56 AM,3803,005,Y,May Catering,6014611.60657,2110567.89709,37.7760385105764,-122.392939332071,
5,Friday,6AM,7AM,15MFF-0061,300 BEALE ST,6am-7am,"Cold Truck: Pre-packaged sandwiches, snacks, fruit, various beverages",631439,,06:00,07:00,2866000,05/10/2011 04:53:30 PM,05/10/2011 04:53:43 PM,3747,022,Y,Liang Bai Ping,6014765.94263,2115143.61778,37.7886109721909,-122.39272561329,
5,Friday,7AM,8AM,13MFF-0102,50 QUINT ST,7:00am-7:10am,"Burgers, melts, hot dogs, burritos,sandwiches, fries, onion rings, drinks",437218,,07:00,08:00,10827000,06/07/2011 12:43:01 PM,06/07/2011 12:43:20 PM,5201,001,Y,Natan's Catering,6015715.11529,2099717.64931,37.7463072924429,-122.388364499595,
5,Friday,7AM,8AM,15MFF-0119,50 QUINT ST,7:00am-7:10am,"Burgers, melts, hot dogs, burritos,sandwiches, fries, onion rings, drinks",645806,,07:00,08:00,10827000,06/07/2011 12:43:01 PM,06/07/2011 12:43:20 PM,5201,001,Y,Natan's Catering,6015715.11529,2099717.64931,37.7463072924429,-122.388364499595,
5,Friday,7AM,8AM,15MFF-0117,2660 NEWHALL ST,7:00am-7:15am,"Cold Truck: Sandwiches, Noodles,  Pre-packaged Snacks, Candy, Desserts Various Beverages",641296,,07:00,08:00,9582003,10/24/2011 03:38:17 PM,10/24/2011 03:43:45 PM,5434B,004,Y,Anas Goodies Catering,6012453.59834,2092853.03964,37.72727724475,-122.399160735119,
5,Friday,7AM,8AM,15MFF-0065,2323 CESAR CHAVEZ ST,7:00am-7:30am,"Cold Truck: packaged sandwiches, snacks, candy, hot and cold drinks",631769,,07:00,08:00,2477000,06/16/2011 11:45:15 AM,06/16/2011 11:45:31 AM,4342,001,Y,Mike's Catering,6012395.86305,2100936.77037,37.7494702507258,-122.399927745604,
5,Friday,12PM,1PM,14MFF-0109,690 MISSION ST,"7:10am-7:15am, 10:05am-10:15am, 12:00pm-12:05pm","COLD TRUCK. Deli: bbq chicken skewer, Chinese spring roll, Chinese fried rice/noodle, fried chicken leg/wing, bbq chicken sandwich, chicken cheese burger, burrito, lumpia. Snack: sunflower seeds, muffins, chips, snickers, kit-kat, 10 types of chocolate. Drinks: Coke, 7-Up, Dr. Pepper, Pepsi, Redbull, Vitamin Water, Rockstar, Coconut Juice, Water. Hot drinks: coffee, tea.",559776,,12:00,13:00,9094000,08/31/2011 03:20:16 PM,08/31/2011 03:20:56 PM,3707,024,Y,Mang Hang Catering,6012107.51053,2114409.4119,37.786447007962,-122.40187181337,
5,Friday,7AM,8AM,15MFF-0064,175 BLUXOME ST,7:20am-7:25am,"Cold Truck: Pre-packaged sandwiches, Burgers, Hot Dogs, Muffin Sandwiches, Enchiladas, Bagels, Burritos, Salads, Snacks, Beverages",631755,,07:00,08:00,2994000,09/07/2011 03:49:09 PM,09/07/2011 03:49:24 PM,3785,030,Y,Steve's Mobile Deli,6012682.09151,2110086.82426,37.7746102279804,-122.399580294284,
5,Friday,8AM,10AM,15MFF-0054,1100 ORTEGA ST,8:00am-9:30am,"Cold Truck: Burrito, Corn Dog, Salads, Sandwiches, Quesadilla, Tacos, Fried Rice, Cow Mein, Chinese Rice, Noodle Plates, Soup, Bacon, Eggs, Ham, Avacado, Sausages, Beverages",629951,,08:00,10:00,10006000,06/02/2011 09:03:38 AM,06/02/2011 09:03:54 AM,2055,019,Y,Eva's Catering,5990628.84606,2102482.70957,37.7524774154426,-122.475310777243,
5,Friday,8AM,9AM,15MFF-0028,840 BRANNAN ST,8:05am-8:15am,"Cold Truck: Hot & Cold Sandwiches, Bagels, Burritos, Soups, Hot Dogs, Tacos, Pork Buns, BBQ Meat, Fruit, Various Beverages, Pasties, Pre-Packaged Snacks, Candy, Salads, Muffins, Scones, Brownies, Croissants, Energy Bars, Noodle Bowls",626842,,08:00,09:00,3088000,08/31/2011 11:43:14 AM,08/31/2011 11:43:33 AM,3780,078,Y,Two G's Catering,6011252.80502,2109369.80684,37.7725616893359,-122.404474023931,
5,Friday,11AM,12PM,14MFF-0109,3300 CESAR CHAVEZ ST,"8:05am-8:20am, 11:30am-11:40am","COLD TRUCK. Deli: bbq chicken skewer, Chinese spring roll, Chinese fried rice/noodle, fried chicken leg/wing, bbq chicken sandwich, chicken cheese burger, burrito, lumpia. Snack: sunflower seeds, muffins, chips, snickers, kit-kat, 10 types of chocolate. Drinks: Coke, 7-Up, Dr. Pepper, Pepsi, Redbull, Vitamin Water, Rockstar, Coconut Juice, Water. Hot drinks: coffee, tea.",559781,,11:00,12:00,2488201,08/31/2011 03:44:44 PM,08/31/2011 03:45:04 PM,6571,011,Y,Mang Hang Catering,6007767.64566,2100598.46728,37.7482822297931,-122.415908342523,
5,Friday,8AM,9AM,15MFF-0077,2111 LANE ST,8:10am-8:25am,"Cold Truck: Soft drinks, cup cakes, potato chips, cookies, gum, sandwiches (hot & cold), peanuts, muffins, coff (hot & cold), water, juice, yoplait, milk, orange juice, sunflower seeds, can foods, burritos, buscuits, chimichangas, rice krispies",632672,,08:00,09:00,8095000,03/28/2012 04:30:37 PM,03/28/2012 04:33:05 PM,5387,022,Y,Quan Catering,6014430.52562,2093475.3221,37.729095881394,-122.392369958155,
5,Friday,8AM,9AM,15MFF-0116,1000 ILLINOIS ST,8:15am-8:20am,"Cold Truck: Sandwiches, fruit, snacks, candy, hot and cold drinks",639676,,08:00,09:00,7169000,07/01/2011 09:27:08 AM,07/01/2011 09:27:21 AM,4109,001,Y,May Catering,6016057.67323,2104427.52641,37.7592586029513,-122.387508486641,
5,Friday,8AM,9AM,15MFF-0028,950 BRYANT ST,8:30am-8:35am,"Cold Truck: Hot & Cold Sandwiches, Bagels, Burritos, Soups, Hot Dogs, Tacos, Pork Buns, BBQ Meat, Fruit, Various Beverages, Pasties, Pre-Packaged Snacks, Candy, Salads, Muffins, Scones, Brownies, Croissants, Energy Bars, Noodle Bowls",626843,,08:00,09:00,3295000,08/31/2011 11:43:56 AM,08/31/2011 11:44:15 AM,3758,127,Y,Two G's Catering,6010667.39661,2109528.9333,37.772965881143,-122.406510236721,
5,Friday,8AM,9AM,15MFF-0047,617 BRYANT ST,"8:30am-9:00am, 10:50am-11:00am","Hot Dogs, Hamburgers, Nachos, Steaks, Pastas, Asian Dishes, Tri-Tip Sandwiches, Sodas & Water",629200,,08:00,09:00,3285000,07/28/2011 03:45:54 PM,07/28/2011 03:46:19 PM,3777,055,N,Linda's Catering,6013050.80889,2111752.23549,37.7792036135615,-122.398421700749,
5,Friday,8AM,9AM,15MFF-0117,208 PENNSYLVANIA AVE,8:35am-8:40am,"Cold Truck: Sandwiches, Noodles,  Pre-packaged Snacks, Candy, Desserts Various Beverages",641304,,08:00,09:00,10332000,10/24/2011 04:00:09 PM,10/24/2011 04:00:41 PM,4000,053,Y,Anas Goodies Catering,6014276.99716,2106153.21178,37.763898172112,-122.393787763456,
5,Friday,8AM,9AM,15MFF-0028,975 INDIANA ST,8:40am-8:47am,"Cold Truck: Hot & Cold Sandwiches, Bagels, Burritos, Soups, Hot Dogs, Tacos, Pork Buns, BBQ Meat, Fruit, Various Beverages, Pasties, Pre-Packaged Snacks, Candy, Salads, Muffins, Scones, Brownies, Croissants, Energy Bars, Noodle Bowls",626844,,08:00,09:00,7195000,08/31/2011 11:44:57 AM,08/31/2011 11:45:16 AM,4106,023,Y,Two G's Catering,6014999.82223,2104043.42668,37.7581452995887,-122.391140229024,
5,Friday,8AM,9AM,13MFF-0102,888 MARIN ST,8:40am-8:50am,"Burgers, melts, hot dogs, burritos,sandwiches, fries, onion rings, drinks",437219,,08:00,09:00,8694000,06/07/2011 12:43:59 PM,06/07/2011 12:44:19 PM,4358,007,Y,Natan's Catering,6016598.90751,2100747.17547,37.7491830922641,-122.385380152928,
5,Friday,8AM,9AM,15MFF-0079,220 RANKIN ST,"8:45am-8:50am, 12:40pm-12:50pm (all M-F)","Cold Truck: Hamburger, cheeseburgers, hot dogs, hot sandwiches, cold sandwiches, egg muffins, cup of noodles, corn dogs, canned soup, coffee, hot cocoa, hot tea, gatorade, juice, milk, soda, water, fruits, fruit salad, rice pudding, yogurt, candy bars, chips, cookies, donuts, granola bars, muffins",632700,,08:00,09:00,10927000,06/07/2011 04:17:28 PM,06/07/2011 04:18:33 PM,5215,016,Y,Park's Catering,6014717.20306,2099489.3611,37.7456251136816,-122.391799229195,
5,Friday,12PM,4PM,15MFF-0111,340 BRANNAN ST,80 LF north of NW corner Brannan and Jack London Alley,"Seafood, meats and desserts",637559,,12:00,16:00,3075000,03/08/2011 01:44:33 PM,06/14/2011 12:44:53 PM,3775,015,N,Fins on the Hoof / Saveurs,6014620.4851,2112434.25961,37.7811636144171,-122.39303923437,
5,Friday,8AM,9AM,13MFF-0102,1580 BURKE AVE,"9:00am-9:10am(Sat), 8:30am-8:40am(M-F)","Burgers, melts, hot dogs, burritos,sandwiches, fries, onion rings, drinks",437198,,08:00,09:00,3376000,06/07/2011 10:43:28 AM,06/07/2011 10:44:11 AM,5203,066,Y,Natan's Catering,6016207.84543,2099177.09262,37.7448503261018,-122.386622994805,
5,Friday,9AM,10AM,14MFF-0001,690 POTRERO AVE,9:05am-9:15am,"Cold Truck: sandwiches, drinks, snacks, candy, hot coffee",509488,,09:00,10:00,10664201,06/07/2011 08:46:43 AM,06/07/2011 08:47:02 AM,4025,003B,Y,Sun Rise Catering,6010375.72507,2105096.92565,37.760780278477,-122.407206690641,
5,Friday,9AM,10AM,15MFF-0061,1351 UNDERWOOD AVE,9:05am-9:15am,"Cold Truck: Pre-packaged sandwiches, snacks, fruit, various beverages",631451,,09:00,10:00,12827000,05/12/2011 04:33:51 PM,05/12/2011 04:34:10 PM,4811,005,Y,Liang Bai Ping,6015900.88977,2092719.37987,37.7271017536177,-122.387234037178,
5,Friday,9AM,10AM,15MFF-0040,1265 GROVE ST,9:10am to 9:15am,"Cold Truck: Breakfast, Sandwiches, Salads, Pre-Packaged Snacks, Beverages",627750,,09:00,10:00,6563000,05/12/2011 07:53:00 AM,05/12/2011 07:53:33 AM,1202,002D,Y,BH & MT LLC,6001768.44576,2110797.36371,37.7759468088778,-122.437383577606,
5,Friday,9AM,10AM,15MFF-0077,722 BRANNAN ST,9:10am-9:20am,"Cold Truck: Soft drinks, cup cakes, potato chips, cookies, gum, sandwiches (hot & cold), peanuts, muffins, coff (hot & cold), water, juice, yoplait, milk, orange juice, sunflower seeds, can foods, burritos, buscuits, chimichangas, rice krispies",632676,,09:00,10:00,3083000,03/28/2012 04:37:37 PM,03/28/2012 04:38:10 PM,3779,132,Y,Quan Catering,6012101.97462,2110026.06408,37.7744110410018,-122.401582774174,
5,Friday,9PM,10PM,15MFF-0109,1140 HARRISON ST,9:15pm-9:20pm,"Cold Truck: sandwiches, corndogs, tacos, yogurt, snacks, candy, hot and cold drinks",635755,,21:00,22:00,6729000,09/26/2011 09:58:18 AM,09/26/2011 10:00:00 AM,3755,023,Y,M M Catering,6010444.41208,2110192.67597,37.7747758874698,-122.407328371042,
5,Friday,9AM,10AM,15MFF-0077,2920 03RD ST,9:20am-9:25am,"Cold Truck: Soft drinks, cup cakes, potato chips, cookies, gum, sandwiches (hot & cold), peanuts, muffins, coff (hot & cold), water, juice, yoplait, milk, orange juice, sunflower seeds, can foods, burritos, buscuits, chimichangas, rice krispies",632677,,09:00,10:00,194201,03/28/2012 04:38:54 PM,03/28/2012 04:39:13 PM,4295,014,Y,Quan Catering,6015904.53318,2101988.38649,37.7525527576463,-122.387867927348,
5,Friday,9AM,10AM,15MFF-0119,2101 03RD ST,9:20am-9:35am,"Burgers, melts, hot dogs, burritos,sandwiches, fries, onion rings, drinks",645810,,09:00,10:00,188101,06/07/2011 12:51:44 PM,06/07/2011 12:52:03 PM,4045,004,Y,Natan's Catering,6015754.75715,2105813.58093,37.7630476291484,-122.388652881267,
5,Friday,9AM,10AM,15MFF-0064,390 04TH ST,9:21am-9:25am,"Cold Truck: Pre-packaged sandwiches, Burgers, Hot Dogs, Muffin Sandwiches, Enchiladas, Bagels, Burritos, Salads, Snacks, Beverages",631760,,09:00,10:00,258000,09/07/2011 04:07:27 PM,09/07/2011 04:08:22 PM,3752,011A,Y,Steve's Mobile Deli,6012624.34785,2112405.83347,37.7809744769695,-122.399942924764,
5,Friday,9AM,10AM,15MFF-0061,1212 THOMAS AVE,"9:25am-9:30am, 12:35pm-12:40pm","Cold Truck: Pre-packaged sandwiches, snacks, fruit, various beverages",631452,,09:00,10:00,12570000,05/12/2011 04:35:21 PM,05/12/2011 04:35:43 PM,4792,029,Y,Liang Bai Ping,6016818.56578,2092434.24974,37.7263696196635,-122.384041765309,
5,Friday,9AM,10AM,15MFF-0061,1337 VAN DYKE AVE,9:25am-9:35am,"Cold Truck: Pre-packaged sandwiches, snacks, fruit, various beverages",631453,,09:00,10:00,13139000,05/12/2011 04:36:34 PM,01/17/2012 03:01:00 PM,4828,029,Y,Liang Bai Ping,6015805.93616,2092443.19943,37.7263381578801,-122.387543034105,
5,Friday,9AM,10AM,15MFF-0028,71 WILLIAMS AVE,9:30am-9:40am,"Cold Truck: Hot & Cold Sandwiches, Bagels, Burritos, Soups, Hot Dogs, Tacos, Pork Buns, BBQ Meat, Fruit, Various Beverages, Pasties, Pre-Packaged Snacks, Candy, Salads, Muffins, Scones, Brownies, Croissants, Energy Bars, Noodle Bowls",626848,,09:00,10:00,13653000,08/31/2011 11:49:05 AM,08/31/2011 11:49:21 AM,5414,022,Y,Two G's Catering,6013796.9707,2093629.46571,37.729483926788,-122.394571014085,
5,Friday,9AM,10AM,13MFF-0102,555 MISSOURI ST,"9:30am-9:40am(M-F), 12:15pm-12:30pm(M-F)","Burgers, melts, hot dogs, burritos,sandwiches, fries, onion rings, drinks",437211,,09:00,10:00,9212000,06/07/2011 12:14:39 PM,06/07/2011 12:15:19 PM,4101,031,Y,Natan's Catering,6013571.25089,2104491.01375,37.7592948961276,-122.39611224788,
5,Friday,12PM,1PM,15MFF-0109,400 ALABAMA ST,"9:30am-9:40am, 8:30pm-8:45pm","Cold Truck: sandwiches, corndogs, tacos, yogurt, snacks, candy, hot and cold drinks",635745,,12:00,13:00,2110000,09/21/2011 02:39:32 PM,09/21/2011 02:40:19 PM,3968,001,Y,M M Catering,6008911.76068,2106354.39074,37.7641509499715,-122.412358791534,
5,Friday,9AM,10AM,15MFF-0077,2555 BAY SHORE BLVD,9:35am-9:40am,"Cold Truck: Soft drinks, cup cakes, potato chips, cookies, gum, sandwiches (hot & cold), peanuts, muffins, coff (hot & cold), water, juice, yoplait, milk, orange juice, sunflower seeds, can foods, burritos, buscuits, chimichangas, rice krispies",632679,,09:00,10:00,2826101,03/28/2012 04:40:26 PM,04/10/2012 09:54:45 AM,5100,002,Y,Quan Catering,6010744.34835,2086421.12822,37.7095211282262,-122.404617048658,
5,Friday,9AM,10AM,15MFF-0116,1200 POTRERO AVE,9:35am-9:40am,"Cold Truck: Sandwiches, fruit, snacks, candy, hot and cold drinks",639681,,09:00,10:00,10672000,07/01/2011 09:34:47 AM,07/01/2011 09:35:04 AM,4265,026,Y,May Catering,6010550.38246,2102245.87641,37.7529617064123,-122.406401730502,
5,Friday,1PM,2PM,13MFF-0102,146 CONNECTICUT ST,"9:35am-9:40am(M-Su), 1:00pm-1:10pm(M-Su)","Burgers, melts, hot dogs, burritos,sandwiches, fries, onion rings, drinks",437224,,13:00,14:00,4345000,06/07/2011 12:55:51 PM,06/07/2011 12:56:20 PM,3983,037,Y,Natan's Catering,6013136.76805,2106382.96081,37.7644655822132,-122.397747616123,
5,Friday,3PM,4PM,15MFF-0116,1300 BRYANT ST,3:20pm-3:25pm,"Cold Truck: Sandwiches, fruit, snacks, candy, hot and cold drinks",639715,,15:00,16:00,517000,08/31/2011 10:45:14 AM,08/31/2011 10:45:33 AM,3903,004,Y,May Catering,6009346.60076,2108249.43439,37.7693786950827,-122.410988658263,
5,Friday,10AM,6PM,15MFF-0123,865 MARKET ST,34 LF east from the Westfield entrance way near the curb,"Kettle Corn, Funnel Cakes, Waffles, Lemonade",648393,,10:00,18:00,8747103,07/17/2012 04:14:14 PM,07/17/2012 04:15:13 PM,3705,042,N,Kettle Corn Star,6010532.97528,2113742.67378,37.7845283055703,-122.407272318144,
5,Friday,4PM,5PM,15MFF-0083,35 NIBBI CT,4:45pm-5:00pm,"Ice Cream, Pre-Packaged Chips, Candies, Bottled Water & Canned SODA",632877,,16:00,17:00,9602000,09/14/2011 10:47:36 AM,09/14/2011 10:47:51 AM,5079,004,Y,Singh Brothers Ice Cream,6013108.50289,2086688.0925,37.7103860077608,-122.396464771663,
5,Friday,10AM,3PM,15MFF-0011,90 BROADWAY,5 LF south from the SE corner of Front and Vallejo Streets,everything except for hot dogs,624186,,10:00,15:00,3143000,03/23/2011 11:25:01 AM,03/23/2011 11:25:30 AM,0140,007,N,"Off the Grid Services, LLC",6012836.56068,2118897.74457,37.7988115687589,-122.399664721789,
5,Friday,11AM,12PM,15MFF-0050,50 IVY ST,50 Ivy St: 11:10am-11:25am,"Cold Truck: Soda,Chips,Candy, Cold/Hot Sandwiches, Donuts.  (Pitco Wholesale)",629900,,11:00,12:00,0,04/13/2011 03:02:09 PM,04/13/2011 03:02:25 PM,0811,001,Y,John's Catering #5,6007197.302,2111480.029,37.7781283797338,-122.418652129997,
5,Friday,10AM,3PM,15MFF-0010,535 MISSION BAY BLVD SOUTH,"535 Mission Bay Blvd South: 1 Truck located on the south side of Mission Bay Blvd South between 3rd St and 4th St, approximately 80 linear feet east of the 4th St and Mission Bay Blvd South intersection. 6 Trucks located in the first 6 parking spaces on the east side of 4th Street between Mission Bay Blvd South and Nelson Rising Lane, just south of the 4th Street and Mission Bay Blvd South intersection.",7 Multiple Trucks on rotation (1 on Mission Bay Blvd South & 6 on 4th St).   Serving everything but hot dogs,624183,,10:00,15:00,15019101,05/22/2013 04:05:45 PM,05/22/2013 04:06:37 PM,8711,007,N,SF Cart Project,6015399.40053,2108558.93496,37.7705660724513,-122.390073746001,
5,Friday,6AM,8AM,15MFF-0079,2323 CESAR CHAVEZ ST,6:40am-7:10am,"Cold Truck: Hamburger, cheeseburgers, hot dogs, hot sandwiches, cold sandwiches, egg muffins, cup of noodles, corn dogs, canned soup, coffee, hot cocoa, hot tea, gatorade, juice, milk, soda, water, fruits, fruit salad, rice pudding, yogurt, candy bars, chips, cookies, donuts, granola bars, muffins",632693,,06:00,08:00,2477000,06/07/2011 04:04:22 PM,06/07/2011 04:04:40 PM,4342,001,Y,Park's Catering,6012395.86305,2100936.77037,37.7494702507258,-122.399927745604,
5,Friday,6AM,9AM,15MFF-0040,170 OTIS ST,"6:45am to 8:30am, 11:30am to 3pm","Cold Truck: Breakfast, Sandwiches, Salads, Pre-Packaged Snacks, Beverages",627756,,06:00,09:00,10048000,05/12/2011 08:30:17 AM,10/24/2011 04:39:33 PM,3513,007,Y,BH & MT LLC,6006672.39446,2108737.26794,37.7705678488858,-122.420273262356,
5,Friday,6AM,7AM,14MFF-0109,501 HOWARD ST,6:50am-7:00am,"COLD TRUCK. Deli: bbq chicken skewer, Chinese spring roll, Chinese fried rice/noodle, fried chicken leg/wing, bbq chicken sandwich, chicken cheese burger, burrito, lumpia. Snack: sunflower seeds, muffins, chips, snickers, kit-kat, 10 types of chocolate. Drinks: Coke, 7-Up, Dr. Pepper, Pepsi, Redbull, Vitamin Water, Rockstar, Coconut Juice, Water. Hot drinks: coffee, tea.",559786,,06:00,07:00,7033000,08/31/2011 03:54:59 PM,08/31/2011 04:20:04 PM,3736,001,Y,Mang Hang Catering,6013806.38991,2115105.14462,37.7884519937144,-122.396042848565,
5,Friday,10AM,11AM,14MFF-0109,1 THOMAS MORE WAY,"7:00am-7:10am, 10:00am-10:10am, 12:00pm-12:10pm","COLD TRUCK. Deli: bbq chicken skewer, Chinese spring roll, Chinese fried rice/noodle, fried chicken leg/wing, bbq chicken sandwich, chicken cheese burger, burrito, lumpia. Snack: sunflower seeds, muffins, chips, snickers, kit-kat, 10 types of chocolate. Drinks: Coke, 7-Up, Dr. Pepper, Pepsi, Redbull, Vitamin Water, Rockstar, Coconut Juice, Water. Hot drinks: coffee, tea.",559780,,10:00,11:00,12583000,08/31/2011 03:39:41 PM,08/31/2011 03:40:19 PM,7380,027,Y,Mang Hang Catering,5991083.26248,2088048.7782,37.7128718139384,-122.472687037509,
5,Friday,12PM,1PM,14MFF-0109,1 THOMAS MORE WAY,"7:00am-7:10am, 10:00am-10:10am, 12:00pm-12:10pm","COLD TRUCK. Deli: bbq chicken skewer, Chinese spring roll, Chinese fried rice/noodle, fried chicken leg/wing, bbq chicken sandwich, chicken cheese burger, burrito, lumpia. Snack: sunflower seeds, muffins, chips, snickers, kit-kat, 10 types of chocolate. Drinks: Coke, 7-Up, Dr. Pepper, Pepsi, Redbull, Vitamin Water, Rockstar, Coconut Juice, Water. Hot drinks: coffee, tea.",559780,,12:00,13:00,12583000,08/31/2011 03:39:41 PM,08/31/2011 03:40:19 PM,7380,027,Y,Mang Hang Catering,5991083.26248,2088048.7782,37.7128718139384,-122.472687037509,
5,Friday,7AM,9AM,14MFF-0001,1 SANSOME ST,7:00am-8:20am,"Cold Truck: sandwiches, drinks, snacks, candy, hot coffee",509485,,07:00,09:00,11542000,06/07/2011 08:43:21 AM,06/07/2011 08:43:35 AM,0289,003,Y,Sun Rise Catering,6012494.74957,2115792.60905,37.7902665460329,-122.400629258559,
5,Friday,7AM,8AM,15MFF-0064,275 STEUART ST,"7:10am-7:20am, 9:50am-9:55am","Cold Truck: Pre-packaged sandwiches, Burgers, Hot Dogs, Muffin Sandwiches, Enchiladas, Bagels, Burritos, Salads, Snacks, Beverages",631754,,07:00,08:00,12160001,09/07/2011 03:37:23 PM,09/07/2011 03:49:51 PM,3742,008,Y,Steve's Mobile Deli,6015214.39904,2116282.42165,37.7917627624843,-122.391253645033,
5,Friday,12PM,1PM,15MFF-0079,1570 BURKE AVE,"7:15am-7:20am, 10:00am-10:05am, 12:15pm-12:20pm (all M-F)","Cold Truck: Hamburger, cheeseburgers, hot dogs, hot sandwiches, cold sandwiches, egg muffins, cup of noodles, corn dogs, canned soup, coffee, hot cocoa, hot tea, gatorade, juice, milk, soda, water, fruits, fruit salad, rice pudding, yogurt, candy bars, chips, cookies, donuts, granola bars, muffins",632694,,12:00,13:00,3376000,06/07/2011 04:06:49 PM,06/07/2011 04:07:23 PM,5203,066,Y,Park's Catering,6016270.58146,2099130.191,37.7447250168321,-122.386402793857,
5,Friday,8AM,9AM,15MFF-0028,945 BRYANT ST,8:00am-8:05am,"Cold Truck: Hot & Cold Sandwiches, Bagels, Burritos, Soups, Hot Dogs, Tacos, Pork Buns, BBQ Meat, Fruit, Various Beverages, Pasties, Pre-Packaged Snacks, Candy, Salads, Muffins, Scones, Brownies, Croissants, Energy Bars, Noodle Bowls",626841,,08:00,09:00,3294000,08/31/2011 11:42:29 AM,08/31/2011 11:42:45 AM,3780,079,Y,Two G's Catering,6010946.48477,2109696.08965,37.7734404634488,-122.405556607063,
5,Friday,8AM,9AM,15MFF-0079,10 LOOMIS ST,8:15am-8:20am,"Cold Truck: Hamburger, cheeseburgers, hot dogs, hot sandwiches, cold sandwiches, egg muffins, cup of noodles, corn dogs, canned soup, coffee, hot cocoa, hot tea, gatorade, juice, milk, soda, water, fruits, fruit salad, rice pudding, yogurt, candy bars, chips, cookies, donuts, granola bars, muffins",632697,,08:00,09:00,8483000,06/07/2011 04:14:18 PM,06/07/2011 04:14:36 PM,5560,100,Y,Park's Catering,6011331.76687,2098875.81365,37.7437519273424,-122.403462463841,
5,Friday,8AM,9AM,15MFF-0061,1180 THOMAS AVE,8:35am-8:40am,"Cold Truck: Pre-packaged sandwiches, snacks, fruit, various beverages",631448,,08:00,09:00,12569000,05/12/2011 04:28:55 PM,05/12/2011 04:29:12 PM,4793,029,Y,Liang Bai Ping,6017004.08143,2092295.95066,37.7260001319965,-122.383390817067,
5,Friday,8AM,9AM,15MFF-0079,1650 DAVIDSON AVE,8:35am-8:40am,"Cold Truck: Hamburger, cheeseburgers, hot dogs, hot sandwiches, cold sandwiches, egg muffins, cup of noodles, corn dogs, canned soup, coffee, hot cocoa, hot tea, gatorade, juice, milk, soda, water, fruits, fruit salad, rice pudding, yogurt, candy bars, chips, cookies, donuts, granola bars, muffins",632699,,08:00,09:00,4615000,06/07/2011 04:16:16 PM,06/07/2011 04:16:47 PM,5215,022,Y,Park's Catering,6014534.60846,2099729.91433,37.7462754843591,-122.392447441505,
5,Friday,8AM,8AM,15MFF-0077,500 SELBY ST,"8:35am-8:40am, 11:05-11:10am","Cold Truck: Soft drinks, cup cakes, potato chips, cookies, gum, sandwiches (hot & cold), peanuts, muffins, coff (hot & cold), water, juice, yoplait, milk, orange juice, sunflower seeds, can foods, burritos, buscuits, chimichangas, rice krispies",632673,,08:00,08:00,11741000,03/28/2012 04:32:42 PM,03/28/2012 04:33:29 PM,5264,049,Y,Quan Catering,6013548.78989,2099028.96009,37.7442960182807,-122.395807199913,
5,Friday,11AM,12PM,15MFF-0077,500 SELBY ST,"8:35am-8:40am, 11:05-11:10am","Cold Truck: Soft drinks, cup cakes, potato chips, cookies, gum, sandwiches (hot & cold), peanuts, muffins, coff (hot & cold), water, juice, yoplait, milk, orange juice, sunflower seeds, can foods, burritos, buscuits, chimichangas, rice krispies",632673,,11:00,12:00,11741000,03/28/2012 04:32:42 PM,03/28/2012 04:33:29 PM,5264,049,Y,Quan Catering,6013548.78989,2099028.96009,37.7442960182807,-122.395807199913,
5,Friday,8AM,9AM,15MFF-0117,1315 ARMSTRONG AVE,8:40am-8:45am,"Cold Truck: Sandwiches, Noodles,  Pre-packaged Snacks, Candy, Desserts Various Beverages",641305,,08:00,09:00,2458000,10/24/2011 04:01:22 PM,10/24/2011 04:01:38 PM,4851,017,Y,Anas Goodies Catering,6015946.96825,2091286.24794,37.7231692072554,-122.38697483362,
5,Friday,8AM,9AM,15MFF-0051,2590 GREEN ST,8:42am-8:48am,"Cold Truck: Pre-packaged sandwiches, Chicken Bake, Canned Soup, Chili Dog, Corn Dog, Cup of Noodles, Egg Muffins, Hamburgers, Cheeseburgers, Hot Dog, Hot sandwiches, quesadillas, Beverages, Flan, Fruits, Yogurt, Candy, Cookies, Chips, Donuts, Snacks",629912,,08:00,09:00,6478000,04/21/2011 04:43:07 PM,04/21/2011 04:43:19 PM,0952,016,Y,D & T Catering,6000657.97,2117904.32254,37.7953974901072,-122.441735157542,
5,Friday,8AM,9AM,15MFF-0077,201 ALABAMA ST,8:45am-8:50am,"Cold Truck: Soft drinks, cup cakes, potato chips, cookies, gum, sandwiches (hot & cold), peanuts, muffins, coff (hot & cold), water, juice, yoplait, milk, orange juice, sunflower seeds, can foods, burritos, buscuits, chimichangas, rice krispies",632675,,08:00,09:00,2107000,03/28/2012 04:36:50 PM,03/28/2012 04:37:54 PM,3924,006,Y,Quan Catering,6008884.55425,2107581.73142,37.767519417299,-122.412539656202,
5,Friday,8AM,9AM,15MFF-0117,790 TENNESSEE ST,8:45am-8:50am,"Cold Truck: Sandwiches, Noodles,  Pre-packaged Snacks, Candy, Desserts Various Beverages",641306,,08:00,09:00,12483000,10/24/2011 04:02:12 PM,10/24/2011 04:02:24 PM,4043,011B,Y,Anas Goodies Catering,6015446.1428,2105380.91313,37.7618425082863,-122.389690061404,
5,Friday,8AM,9AM,15MFF-0050,2500 MARIPOSA ST,8:45am-8:55am,"Cold Truck: Soda,Chips,Candy, Cold/Hot Sandwiches, Donuts.  (Pitco Wholesale)",629892,,08:00,09:00,8731000,04/13/2011 12:47:27 PM,04/13/2011 12:47:43 PM,3971,001,Y,John's Catering #5,6010070.80288,2105976.81921,37.7631791971676,-122.408323348249,
5,Friday,8AM,9AM,14MFF-0001,1300 HOWARD ST,8:45am-9:00am,"Cold Truck: sandwiches, drinks, snacks, candy, hot coffee",509486,,08:00,09:00,7052000,06/07/2011 08:44:05 AM,06/07/2011 08:44:20 AM,3509,008A,Y,Sun Rise Catering,6008743.10027,2110316.67252,37.7750209861951,-122.413222349168,
5,Friday,8AM,9AM,15MFF-0119,3201 03RD ST,8:50am-9:00am,"Burgers, melts, hot dogs, burritos,sandwiches, fries, onion rings, drinks",645808,,08:00,09:00,197101,06/07/2011 12:49:10 PM,06/07/2011 12:49:50 PM,4377,001,Y,Natan's Catering,6016030.86475,2100677.88189,37.7489613833537,-122.387339637684,
5,Friday,8AM,10AM,15MFF-0079,1555 BURKE AVE,8:55am-9:10am,"Cold Truck: Hamburger, cheeseburgers, hot dogs, hot sandwiches, cold sandwiches, egg muffins, cup of noodles, corn dogs, canned soup, coffee, hot cocoa, hot tea, gatorade, juice, milk, soda, water, fruits, fruit salad, rice pudding, yogurt, candy bars, chips, cookies, donuts, granola bars, muffins",632701,,08:00,10:00,3376000,06/07/2011 04:26:26 PM,06/07/2011 04:26:43 PM,5203,067,Y,Park's Catering,6016347.00827,2099023.11157,37.7444352289816,-122.386131058867,
5,Friday,11AM,12PM,15MFF-0021,1000 EVANS AVE,"813 Evans Ave: 8:30am-9:18am, 11am-11:30am","Cold Truck: Hot/Cold Sandwiches, Water, Soda, Juice, Snacks, Milk, Candies, Canned Food, Soups, Cup of Noodles, Fruit, Salad",626067,,11:00,12:00,5329000,05/06/2011 12:51:11 PM,05/06/2011 12:51:31 PM,4580,002,Y,F & C Catering,6018870.42,2096118.83,37.7365999870093,-122.377204056226,
5,Friday,9AM,10AM,15MFF-0064,600 HARRISON ST,"9:00am-9:05am, 10:25am-10:30am","Cold Truck: Pre-packaged sandwiches, Burgers, Hot Dogs, Muffin Sandwiches, Enchiladas, Bagels, Burritos, Salads, Snacks, Beverages",631758,,09:00,10:00,6714000,09/07/2011 03:56:52 PM,09/07/2011 03:57:24 PM,3750,073,Y,Steve's Mobile Deli,6014012.12424,2113602.33559,37.7843370711132,-122.395225723073,
5,Friday,9AM,10AM,15MFF-0028,175 BARNEVELD AVE,9:05am-9:10am,"Cold Truck: Hot & Cold Sandwiches, Bagels, Burritos, Soups, Hot Dogs, Tacos, Pork Buns, BBQ Meat, Fruit, Various Beverages, Pasties, Pre-Packaged Snacks, Candy, Salads, Muffins, Scones, Brownies, Croissants, Energy Bars, Noodle Bowls",626847,,09:00,10:00,2734000,08/31/2011 11:48:21 AM,08/31/2011 11:48:34 AM,5286A,018,Y,Two G's Catering,6011538.07533,2099454.3623,37.7453520187473,-122.402789774322,
5,Friday,9AM,10AM,13MFF-0102,350 KANSAS ST,9:05am-9:20am,"Burgers, melts, hot dogs, burritos,sandwiches, fries, onion rings, drinks",437221,,09:00,10:00,7727000,06/07/2011 12:50:19 PM,06/07/2011 12:50:36 PM,3958,001D,Y,Natan's Catering,6011436.68779,2106740.92197,37.7653536432638,-122.40365294813,
5,Friday,9AM,10AM,15MFF-0119,350 KANSAS ST,9:05am-9:20am,"Burgers, melts, hot dogs, burritos,sandwiches, fries, onion rings, drinks",645809,,09:00,10:00,7727000,06/07/2011 12:50:19 PM,06/07/2011 12:50:36 PM,3958,001D,Y,Natan's Catering,6011436.68779,2106740.92197,37.7653536432638,-122.40365294813,
5,Friday,9AM,10AM,15MFF-0079,330 NEWHALL ST,9:10am-9:15am,"Cold Truck: Hamburger, cheeseburgers, hot dogs, hot sandwiches, cold sandwiches, egg muffins, cup of noodles, corn dogs, canned soup, coffee, hot cocoa, hot tea, gatorade, juice, milk, soda, water, fruits, fruit salad, rice pudding, yogurt, candy bars, chips, cookies, donuts, granola bars, muffins",632702,,09:00,10:00,9563000,06/07/2011 04:27:21 PM,06/07/2011 04:27:38 PM,5203,035,Y,Park's Catering,6016411.81302,2098371.40323,37.7426493577383,-122.385861558324,
5,Friday,9AM,10AM,15MFF-0117,640 TENNESSEE ST,"9:10am-9:15am, 12:25pm-12:30pm","Cold Truck: Sandwiches, Noodles,  Pre-packaged Snacks, Candy, Desserts Various Beverages",641309,,09:00,10:00,12482000,10/24/2011 04:09:50 PM,10/24/2011 04:10:14 PM,3996,012,Y,Anas Goodies Catering,6015407.52592,2106068.769,37.7637290705316,-122.389871672284,
5,Friday,9AM,10AM,15MFF-0021,1275 MINNESOTA ST,9:15am-9:20am,"Cold Truck: Hot/Cold Sandwiches, Water, Soda, Juice, Snacks, Milk, Candies, Canned Food, Soups, Cup of Noodles, Fruit, Salad",626059,,09:00,10:00,9058000,05/06/2011 11:22:19 AM,05/06/2011 11:22:32 AM,4229,004,Y,F & C Catering,6015352.18285,2102648.5048,37.7543346885192,-122.389824170428,
5,Friday,9AM,10AM,15MFF-0117,1750 FOLSOM ST,9:15am-9:20am,"Cold Truck: Sandwiches, Noodles,  Pre-packaged Snacks, Candy, Desserts Various Beverages",641310,,09:00,10:00,5687000,10/24/2011 04:10:53 PM,10/24/2011 04:11:10 PM,3530,006,Y,Anas Goodies Catering,6007987.79461,2108149.25111,37.7690273253983,-122.415681626119,
5,Friday,9AM,10AM,13MFF-0102,600 16TH ST,"9:15am-9:20am(Sat), 9:10am-9:30am(M-F), 9:30am-9:45am(M-F), 12:00pm-12:30pm(M-F), 9:30am-10:00am(M-Su)","Burgers, melts, hot dogs, burritos,sandwiches, fries, onion rings, drinks",437199,,09:00,10:00,698000,06/07/2011 10:47:03 AM,06/07/2011 10:55:34 AM,8718,001,Y,Natan's Catering,6015145.37618,2107212.10239,37.7668538737285,-122.390858284639,
5,Friday,9AM,10AM,15MFF-0119,600 16TH ST,"9:15am-9:20am(Sat), 9:10am-9:30am(M-F), 9:30am-9:45am(M-F), 12:00pm-12:30pm(M-F), 9:30am-10:00am(M-Su)","Burgers, melts, hot dogs, burritos,sandwiches, fries, onion rings, drinks",645787,,09:00,10:00,698000,06/07/2011 10:47:03 AM,06/07/2011 10:55:34 AM,8718,001,Y,Natan's Catering,6015145.37618,2107212.10239,37.7668538737285,-122.390858284639,
5,Friday,1PM,2PM,15MFF-0119,146 CONNECTICUT ST,"9:35am-9:40am(M-Su), 1:00pm-1:10pm(M-Su)","Burgers, melts, hot dogs, burritos,sandwiches, fries, onion rings, drinks",645812,,13:00,14:00,4345000,06/07/2011 12:55:51 PM,06/07/2011 12:56:20 PM,3983,037,Y,Natan's Catering,6013136.76805,2106382.96081,37.7644655822132,-122.397747616123,
5,Friday,12PM,1PM,15MFF-0064,145 KING ST,"9:40am-9:45am, 12:00pm-12:05pm","Cold Truck: Pre-packaged sandwiches, Burgers, Hot Dogs, Muffin Sandwiches, Enchiladas, Bagels, Burritos, Salads, Snacks, Beverages",631762,,12:00,13:00,7832101,09/07/2011 04:12:09 PM,09/07/2011 04:12:40 PM,3794,003C,Y,Steve's Mobile Deli,6015358.90503249,2111600.82386693,37.7789161780122,-122.390426395944,
5,Friday,9AM,10AM,15MFF-0077,151 EXECUTIVE PARK BLVD,"9:45am-9:50am, 11:50am-11:55am","Cold Truck: Soft drinks, cup cakes, potato chips, cookies, gum, sandwiches (hot & cold), peanuts, muffins, coff (hot & cold), water, juice, yoplait, milk, orange juice, sunflower seeds, can foods, burritos, buscuits, chimichangas, rice krispies",632681,,09:00,10:00,51657000,03/28/2012 04:42:00 PM,04/10/2012 09:55:28 AM,4991,089,Y,Quan Catering,6013914.933,2087053.31143,37.7114336729248,-122.393703104382,
5,Friday,9AM,10AM,14MFF-0034,1760 YOSEMITE AVE,9:50am-10am,"Cold Truck: Cheeseburgers, Burgers, Chicken Bake, Chili Dogs, Hot Dogs, Corn Dogs, Cup of Noodles, Egg Muffins, Tamales, Hot Sandwiches Quesadillas, Gatorade, Juice, Soda, Mikl, Coffee, Hot Cocoa, Hot Tea, Flan, Fruits, Fruit Salad, Yogurt, Candy, Chips,  Donuts, Cookies, Granola, Muffins & Various Drinks & Pre-Packaged Snacks.",526127,,09:00,10:00,13784000,04/22/2011 10:31:47 AM,04/22/2011 10:32:05 AM,5414,020,Y,Bach Catering,6013769.2722,2093313.18776,37.7286139518831,-122.394644631904,
5,Friday,9AM,10AM,15MFF-0117,700 PENNSYLVANIA AVE,"9:50am-9:55am, 12:07pm-12:11pm","Cold Truck: Sandwiches, Noodles,  Pre-packaged Snacks, Candy, Desserts Various Beverages",641315,,09:00,10:00,10336000,10/24/2011 04:17:07 PM,10/24/2011 04:17:30 PM,4167,010,Y,Anas Goodies Catering,6014404.74371,2103845.96013,37.7575700580023,-122.393184466145,
5,Friday,6AM,4PM,15MFF-0038,556 SUTTER ST,Approximately 300' from Powell St. Intersection,"Hot coffee, iced coffee, hot chocolate, tea, pastries",627433,,06:00,16:00,12323000,08/21/2014 08:23:08 AM,08/21/2014 08:23:32 AM,0284,009,N,Philz Coffee Truck,6009912.11989,2115442.60749,37.7891611498687,-122.409540294778,
5,Friday,10AM,2PM,15MFF-0009,48 DAVIS ST,"Approximately 40 Ft from the intersection of Market St, Beale St, and Pine St. Truck will be located on the east side of Davis St","Mantu, Balani, Guabili pillow, lamb shank",654165,,10:00,14:00,4605000,05/12/2015 09:57:42 AM,05/12/2015 10:00:30 AM,0264,004,N,Kamdesh Truck,6013440.76674,2116748.61079,37.7929442181312,-122.397423158071,
5,Friday,10AM,2PM,15MFF-0009,450 CALIFORNIA ST,appxm. 20 ft from the intersection,"Mantu, Balani, Guabili pillow, lamb shank",654163,,10:00,14:00,3529000,05/12/2015 09:32:26 AM,05/12/2015 09:55:00 AM,0239,026,N,Kamdesh Truck,6012121.02758,2116797.70841,37.7930054602042,-122.401993004284,
5,Friday,8AM,6PM,15MFF-0044,1 CALIFORNIA ST,"Cart located approximately 30 feet west of the northwest corner of Market St/Drumm St, on the Market Street frontage of Wells Fargo Bank and inline with the 2nd row of trees away from curb.","Chaats, vegeterian wraps, chai, soft drinks",665120,,08:00,18:00,3524000,06/12/2015 03:36:03 PM,06/12/2015 03:37:06 PM,0264,004,N,Gour Chaat,6013736.6068,2116983.22349,37.7936048767403,-122.396415980979,
5,Friday,11AM,12PM,15MFF-0111,500 HOWARD ST,Located approximately 100' West of the 1st St/Natoma St intersection.,"Seafood, meats and desserts",637560,,11:00,12:00,9507000,03/14/2011 02:39:10 PM,06/14/2011 12:47:29 PM,3721,011,N,Fins on the Hoof / Saveurs,6013778.7388,2115134.04818,37.7885298177102,-122.396140544185,
5,Friday,11AM,12PM,15MFF-0094,400 HOWARD ST,Located in the yellow meters approximately 30' from the intersection of Howard & 1st St.,Cupcakes,633159,,11:00,12:00,7032000,03/08/2011 11:09:04 AM,10/25/2011 03:31:30 PM,3720,008,N,Kara's Cupcakes,6014048.2034,2115391.83668,37.7892526344794,-122.395226296171,
5,Friday,4PM,5PM,15MFF-0094,400 HOWARD ST,Located in the yellow meters approximately 30' from the intersection of Howard & 1st St.,Cupcakes,633159,,16:00,17:00,7032000,03/08/2011 11:09:04 AM,10/25/2011 03:31:30 PM,3720,008,N,Kara's Cupcakes,6014048.2034,2115391.83668,37.7892526344794,-122.395226296171,
5,Friday,10AM,3PM,11MFF-0040,86 03RD ST,"Located in the yellow zone, red parking metered spot, third spot.","Indian Style: BBQ, Variety of Curries, Rice, Wraps, Breads (Naan, Rotis, Parathas), Desserts, Pizza.  Beverages, Condiments, Indian Soups, Salads & Appetizer Varieties.",305735,,10:00,15:00,165000,03/07/2011 04:36:55 PM,03/07/2011 04:38:19 PM,3706,093,,Bombay Blvd.,6011984.13271,2114388.83459,37.7863836212372,-122.402297224865,
5,Friday,11AM,7PM,15MFF-0036,801 MARKET ST,Located on south side of Market Street 40 LF west of 4th Street near curb,Kettle Corn,627197,,11:00,19:00,8747102,05/13/2011 08:43:14 AM,05/13/2011 08:43:36 AM,3705Z,001,N,Creme Brulee To Go,6010973.02311,2114153.60775,37.7856812513257,-122.405778850215,
5,Friday,8AM,4PM,14MFF-0030,600 FRONT ST,"Located on the Jackson Street frontage, 100' from the Front and Jackson Street intersection.",Wood Fired Pizzas,526091,,08:00,16:00,5872000,08/07/2012 09:33:20 AM,08/07/2012 09:33:40 AM,0172,010,N,"Del Popolo, LLC.",6012886.5042,2118222.95165,37.7969615325232,-122.399444500759,
5,Friday,6AM,12AM,15MFF-0090,900 BEACH ST,"Northwest Corner of Hyde & Beach Streets, on Beach.  Approximately 12' West of the Hyde St & Beach St crosswalk. Located against the wall with plant/ bushes.","Hot dogs, condiments, soft pretzels, soft drinks, coffee,cold beverages, pastries, bakery goods, cookies, icecream, candy, soups, churros, chestnuts, nuts, fresh fruit, fruit juices, desserts, potato chips and popcorn.",632972,,06:00,24:00,2846000,08/31/2011 04:05:09 PM,08/31/2011 04:05:30 PM,0405,007,N,"San Francisco Carts & Concessions, Inc. DBA Stanley's Steamers Hot Dogs",6005895.59457,2121756.69017,37.8062721441523,-122.42388615342,
5,Friday,10AM,3PM,14MFF-0134,430 CALIFORNIA ST,"On California St, 46ft east of Leidesdorff St","Lobster rolls, crab rolls, clam chowder, lobster bisque, chips, lemonade, drinks",632811,,10:00,15:00,3528000,03/17/2015 08:29:28 AM,03/17/2015 08:33:37 AM,0239,029,N,Lobsta Truck,6012220.23402,2116811.58029,37.7930490854658,-122.401650717955,
5,Friday,10AM,3PM,14MFF-0134,100 PINE ST,"On Pine St, 51ft west of Front St","Lobster rolls, crab rolls, clam chowder, lobster bisque, chips, lemonade, drinks",632803,,10:00,15:00,10454000,03/17/2015 08:25:28 AM,03/17/2015 08:26:19 AM,0262,020,N,Lobsta Truck,6013087.34067,2116578.67334,37.7924579257151,-122.398634107992,
5,Friday,6AM,3PM,15MFF-0038,301 PINE ST,On Sansome St. approximately 36' from Pine St.,"Hot coffee, iced coffee, hot chocolate, tea, pastries",627431,,06:00,15:00,10456000,08/12/2014 02:00:37 PM,08/21/2014 08:14:21 AM,0268,001,N,Philz Coffee Truck,6012417.24934,2116444.24416,37.7920514593666,-122.400943208625,
5,Friday,6AM,9PM,14MFF-0048,870 MARKET ST,"Push cart located at the cable car turn around, adjacent to the queue line approximately 20' West from the entrance of the 890 Market St building.","Soft pretzels, hot dogs, sausages, chips, popcorn, soda, espresso, cappucino, pastry, ica cream, ices, italian sausage, shish-ka-bob, churros, juice, water, various drinks",526280,,06:00,21:00,8747202,12/14/2011 02:58:54 PM,12/14/2011 02:59:22 PM,0329,005,N,"The New York Frankfurter Co. of CA, Inc. DBA: Annie's Hot Dogs",6010593.36901,2113879.05243,37.7849061488879,-122.407072991554,
5,Friday,6AM,9PM,15MFF-0100,870 MARKET ST,"Push cart located at the cable car turn around, adjacent to the queue line approximately 20' West from the entrance of the 890 Market St building.","Soft pretzels, hot dogs, sausages, chips, popcorn, soda, espresso, cappucino, pastry, ica cream, ices, italian sausage, shish-ka-bob, churros, juice, water, various drinks",633742,,06:00,21:00,8747202,12/14/2011 02:58:54 PM,12/14/2011 02:59:22 PM,0329,005,N,"The New York Frankfurter Co. of CA, Inc. DBA: Annie's Hot Dogs",6010593.36901,2113879.05243,37.7849061488879,-122.407072991554,
5,Friday,6AM,9PM,14MFF-0049,101 STOCKTON ST,"Push cart located at the NW corner of Stockton St & OFarrell St, on Stockton St.","Soft Pretzels, hot dogs, sausage, chips, popcorn, soda, espresso, cappucino, pastries, ice cream, italian sausages, shish-ka-bob, churros, juice, water, various drinks",526281,,06:00,21:00,12195000,11/21/2011 05:03:19 PM,11/21/2011 05:03:35 PM,0314,002,N,"The New York Frankfurter Co. of CA, Inc. DBA: Annie's Hot Dogs",6010779.5576,2114505.00456,37.786635282569,-122.406472958687,
5,Friday,11AM,9PM,14MFF-0056,532 MARKET ST,"Push cart located on Market St curbside along the concrete pillars, east of the Sutter St and Sansome St intersection.",Creme Brulee,526417,,11:00,21:00,8742201,10/25/2011 11:38:11 AM,10/25/2011 11:39:03 AM,0290,012,N,The Creme Brulee Cart,6012827.29795,2116012.84151,37.7908897937244,-122.399494126212,
